[
  {
    "name": "에이플러스모터스",
    "grade": "1급",
    "priority": 1,
    "HCS": "Y",
    "phone": "010-7727-7737 (오현민)",
    "address": "부산 금정구 공단로 49",
    "lat": "35.2184332",
    "lng": "129.112848",
    "monthlyCapacity": "ㅇㅇ대",
    "currentIncoming": "ㅇㅇ대",
    "possibleIncoming": "ㅇㅇ대",
    "repairGeneral": "ⅹ",
    "repairAccident": "○",
    "pointHyundai": "-",
    "pointKia": "○",
    "notes": "-",
    "registerDate": 202511110
  },
  {
    "name": "금빛종합모터스",
    "grade": "1급",
    "priority": 1,
    "HCS": "Y",
    "phone": "010-3174-1479 (정우현)",
    "address": "대전 대덕구 한밭대로1003번길 110",
    "lat": "36.3610372",
    "lng": "127.405487",
    "monthlyCapacity": "ㅇㅇ대",
    "currentIncoming": "ㅇㅇ대",
    "possibleIncoming": "ㅇㅇ대",
    "repairGeneral": "ⅹ",
    "repairAccident": "○",
    "pointHyundai": "-",
    "pointKia": "-",
    "notes": "-",
    "registerDate": 202511110
  },
  {
    "name": "유진모터스",
    "grade": "1급",
    "priority": 1,
    "HCS": "Y",
    "phone": "010-9776-8903 (박유진)",
    "address": "경기 파주시 탄현면 갈현로 39-1 ",
    "lat": "37.7728146",
    "lng": "126.719736",
    "monthlyCapacity": "ㅇㅇ대",
    "currentIncoming": "ㅇㅇ대",
    "possibleIncoming": "ㅇㅇ대",
    "repairGeneral": "ⅹ",
    "repairAccident": "○",
    "pointHyundai": "-",
    "pointKia": "-",
    "notes": "-",
    "registerDate": 202511110
  },
  {
    "name": "평내현대써비스",
    "grade": "1급",
    "priority": 1,
    "HCS": "Y",
    "phone": "010-8703-3033 (홍순봉)",
    "address": "경기 남양주시 경춘로 1319 ",
    "lat": "37.6513548",
    "lng": "127.238195",
    "monthlyCapacity": "ㅇㅇ대",
    "currentIncoming": "ㅇㅇ대",
    "possibleIncoming": "ㅇㅇ대",
    "repairGeneral": "ⅹ",
    "repairAccident": "○",
    "pointHyundai": "○",
    "pointKia": "-",
    "notes": "-",
    "registerDate": 202511110
  },
  {
    "name": "카텍모터스",
    "grade": "1급",
    "priority": 1,
    "HCS": "Y",
    "phone": "010-5393-6661 (김성호)",
    "address": "서울 성동구 아차산로11길 2 ",
    "lat": "37.5445",
    "lng": "127.0597",
    "monthlyCapacity": "ㅇㅇ대",
    "currentIncoming": "ㅇㅇ대",
    "possibleIncoming": "ㅇㅇ대",
    "repairGeneral": "ⅹ",
    "repairAccident": "○",
    "pointHyundai": "-",
    "pointKia": "-",
    "notes": "-",
    "registerDate": 20251013
  },
  {
    "name": "유엔모터스",
    "grade": "1급",
    "priority": 1,
    "HCS": "Y",
    "phone": "010-3350-5925 (박경영)",
    "address": "서울 성동구 아차산로11가길 37 ",
    "lat": "37.5454279",
    "lng": "127.064402",
    "monthlyCapacity": "ㅇㅇ대",
    "currentIncoming": "ㅇㅇ대",
    "possibleIncoming": "ㅇㅇ대",
    "repairGeneral": "ⅹ",
    "repairAccident": "입고중지",
    "pointHyundai": "-",
    "pointKia": "-",
    "notes": "-",
    "registerDate": 20251103
    },  
    {
    "name": "지프써비스",
    "grade": "1급",
    "priority": 1,
    "HCS": "N",
    "phone": "010-2641-0153 (박영준)",
    "address": "광주시 남구 송암로24번가길39 ",
    "lat": "35.1113015",
    "lng": "126.877838",
    "monthlyCapacity": "ㅇㅇ대",
    "currentIncoming": "ㅇㅇ대",
    "possibleIncoming": "ㅇㅇ대",
    "repairGeneral": "ⅹ",
    "repairAccident": "○",
    "pointHyundai": "-",
    "pointKia": "-",
    "notes": "우리금융캐피탈,견인대상만 입고",
    "registerDate": 20250926
    },
    {
    "name": "베스트포",
    "grade": "1급",
    "priority": 1,
    "HCS": "Y",
    "phone": "010-4455-9327 (김도영)",
    "address": "경기도 용인시 처인구 모현읍 백옥대로 2265 ",
    "lat": "37.3274595",
    "lng": "127.244497",
    "monthlyCapacity": "ㅇㅇ대",
    "currentIncoming": "ㅇㅇ대",
    "possibleIncoming": "ㅇㅇ대",
    "repairGeneral": "○",
    "repairAccident": "○",
    "pointHyundai": "-",
    "pointKia": "-",
    "notes": "-",
    "registerDate": 20250925
    },  
    {
    "name": "청주태일카",
    "grade": "1급",
    "priority": 1,
    "HCS": "Y",
    "phone": "010-5466-9669 (오상호)",
    "address": "충북 청주시 청원구 주성로 79 ",
    "lat": "36.6681924",
    "lng": "127.476215",
    "monthlyCapacity": "ㅇㅇ대",
    "currentIncoming": "ㅇㅇ대",
    "possibleIncoming": "ㅇㅇ대",
    "repairGeneral": "ⅹ",
    "repairAccident": "○",
    "pointHyundai": "-",
    "pointKia": "-",
    "notes": "우리금융캐피탈,견인대상만 입고",
    "registerDate": 20250917
    },  
    {
    "name": "태극모터월드",
    "grade": "1급",
    "priority": 1,
    "HCS": "Y",
    "phone": "010-4388-3458 (김태민)",
    "address": "경기 용인시 처인구 한터로 80 ",
    "lat": "37.2511820",
    "lng": "127.219398",
    "monthlyCapacity": "ㅇㅇ대",
    "currentIncoming": "ㅇㅇ대",
    "possibleIncoming": "ㅇㅇ대",
    "repairGeneral": "ⅹ",
    "repairAccident": "○",
    "pointHyundai": "-",
    "pointKia": "-",
    "notes": "우리금융캐피탈, 견인대상만 입고",
    "registerDate": 20250917
  },
  {
    "name": "블루핸즈 롯데칠성음료신협양평분점",
    "grade": "1급",
    "priority": 1,
    "HCS": "Y",
    "phone": "010-5846-0773 (안성민)",
    "address": "서울특별시 영등포구 양평로24길 33 ",
    "lat": "37.5406504",
    "lng": "126.894071",
    "monthlyCapacity": "ㅇㅇ대",
    "currentIncoming": "ㅇㅇ대",
    "possibleIncoming": "ㅇㅇ대",
    "repairGeneral": "ⅹ",
    "repairAccident": "○",
    "pointHyundai": "○",
    "pointKia": "-",
    "notes": "-",
    "registerDate": 20250911
  },
  {
    "name": "(유)그린웨이자동차공업사",
    "grade": "1급",
    "priority": "",
    "HCS": "Y",
    "phone": "010-7682-8113 (장현이)",
    "address": "전라남도 여수시 봉계4길 7 (봉계동)",
    "lat": "34.7846033",
    "lng": "127.6640070",
    "monthlyCapacity": "ㅇㅇ대",
    "currentIncoming": "ㅇㅇ대",
    "possibleIncoming": "ㅇㅇ대",
    "repairGeneral": "ⅹ",
    "repairAccident": "○",
    "pointHyundai": "-",
    "pointKia": "-",
    "notes": "-",
    "registerDate": "-"
  },
  {
    "name": "(주)고경모터스",
    "grade": "1급",
    "priority": "",
    "HCS": "N",
    "phone": "0312168610",
    "address": "경기도 수원시 영통구 중부대로448번길 61 (원천동)",
    "lat": "37.2672390",
    "lng": "127.0610694",
    "monthlyCapacity": "ㅇㅇ대",
    "currentIncoming": "ㅇㅇ대",
    "possibleIncoming": "ㅇㅇ대",
    "repairGeneral": "ⅹ",
    "repairAccident": "○",
    "pointHyundai": "-",
    "pointKia": "-",
    "notes": "-",
    "registerDate": "-"
  },
  {
    "name": "(주)국제카독크",
    "grade": "1급",
    "priority": "",
    "HCS": "Y",
    "phone": "010-2110-5743 (정봉규)",
    "address": "경기도 시흥시 공단1대로260번길 6 (정왕동)",
    "lat": "37.3347225",
    "lng": "126.7287681",
    "monthlyCapacity": "ㅇㅇ대",
    "currentIncoming": "ㅇㅇ대",
    "possibleIncoming": "ㅇㅇ대",
    "repairGeneral": "ⅹ",
    "repairAccident": "○",
    "pointHyundai": "-",
    "pointKia": "-",
    "notes": "(유리입고금지)",
    "registerDate": "-"
  },
  {
    "name": "(주)그린오토정비",
    "grade": "1급",
    "priority": "",
    "HCS": "Y",
    "phone": "010-5046-2285 (전경배)",
    "address": "부산광역시 사상구 낙동대로1048번길 52 (감전동)",
    "lat": "35.1530197",
    "lng": "128.9757578",
    "monthlyCapacity": "ㅇㅇ대",
    "currentIncoming": "ㅇㅇ대",
    "possibleIncoming": "ㅇㅇ대",
    "repairGeneral": "ⅹ",
    "repairAccident": "○",
    "pointHyundai": "-",
    "pointKia": "-",
    "notes": "-",
    "registerDate": "-"
  },
  {
    "name": "(주)대림정비공업사",
    "grade": "1급",
    "priority": "",
    "HCS": "N",
    "phone": "024011141",
    "address": "서울특별시 송파구 중대로 204 (가락동)",
    "lat": "37.4999833",
    "lng": "127.1268607",
    "monthlyCapacity": "ㅇㅇ대",
    "currentIncoming": "ㅇㅇ대",
    "possibleIncoming": "ㅇㅇ대",
    "repairGeneral": "ⅹ",
    "repairAccident": "○",
    "pointHyundai": "-",
    "pointKia": "-",
    "notes": "(유리입고금지)",
    "registerDate": "-"
  },
  {
    "name": "(주)대성카독크",
    "grade": "1급",
    "priority": "",
    "HCS": "Y",
    "phone": "010-5411-3174 (강병하)",
    "address": "서울특별시 영등포구 양평로19길 31 (양평동4가)",
    "lat": "37.5346956",
    "lng": "126.8936772",
    "monthlyCapacity": "ㅇㅇ대",
    "currentIncoming": "ㅇㅇ대",
    "possibleIncoming": "ㅇㅇ대",
    "repairGeneral": "ⅹ",
    "repairAccident": "○",
    "pointHyundai": "-",
    "pointKia": "-",
    "notes": "(유리입고금지)",
    "registerDate": "-"
  },
  {
    "name": "(주)대영오토모터스",
    "grade": "1급",
    "priority": "",
    "HCS": "Y",
    "phone": "010-5259-4441 (김기우)",
    "address": "경기도 수원시 영통구 매영로 219-8 (원천동, (주)하프앤드)",
    "lat": "37.2615201",
    "lng": "127.0643758",
    "monthlyCapacity": "ㅇㅇ대",
    "currentIncoming": "ㅇㅇ대",
    "possibleIncoming": "ㅇㅇ대",
    "repairGeneral": "입고중지",
    "repairAccident": "입고중지",
    "pointHyundai": "-",
    "pointKia": "-",
    "notes": "-",
    "registerDate": "250801"
  },
  {
    "name": "(주)미래자동차",
    "grade": "1급",
    "priority": "",
    "HCS": "N",
    "phone": "0326718813",
    "address": "경기도 부천시 석천로 396 (삼정동)",
    "lat": "37.5218791",
    "lng": "126.7687590",
    "monthlyCapacity": "ㅇㅇ대",
    "currentIncoming": "ㅇㅇ대",
    "possibleIncoming": "ㅇㅇ대",
    "repairGeneral": "ⅹ",
    "repairAccident": "○",
    "pointHyundai": "-",
    "pointKia": "-",
    "notes": "-",
    "registerDate": "-"
  },
  {
    "name": "(주)부천자동차공업사(현대)",
    "grade": "1급",
    "priority": "",
    "HCS": "N",
    "phone": "01023305215",
    "address": "경기도 부천시 신흥로 384 (내동, A동,B동)",
    "lat": "37.5181067",
    "lng": "126.7756383",
    "monthlyCapacity": "ㅇㅇ대",
    "currentIncoming": "ㅇㅇ대",
    "possibleIncoming": "ㅇㅇ대",
    "repairGeneral": "ⅹ",
    "repairAccident": "○",
    "pointHyundai": "○",
    "pointKia": "-",
    "notes": "-",
    "registerDate": "-"
  },
  {
    "name": "(주)세진자동차서비스(현대)",
    "grade": "1급",
    "priority": "",
    "HCS": "N",
    "phone": "0316524848",
    "address": "경기도 평택시 신평로 67 (유천동)",
    "lat": "36.9730026",
    "lng": "127.1053596",
    "monthlyCapacity": "ㅇㅇ대",
    "currentIncoming": "ㅇㅇ대",
    "possibleIncoming": "ㅇㅇ대",
    "repairGeneral": "ⅹ",
    "repairAccident": "○",
    "pointHyundai": "○",
    "pointKia": "-",
    "notes": "-",
    "registerDate": "-"
  },
  {
    "name": "(주)세창종합정비",
    "grade": "1급",
    "priority": "",
    "HCS": "Y",
    "phone": "010-3495-5055 (김상일)",
    "address": "경상남도 거제시 송정5길 112-7 (연초면)",
    "lat": "34.9063277",
    "lng": "128.6800581",
    "monthlyCapacity": "ㅇㅇ대",
    "currentIncoming": "ㅇㅇ대",
    "possibleIncoming": "ㅇㅇ대",
    "repairGeneral": "ⅹ",
    "repairAccident": "○",
    "pointHyundai": "-",
    "pointKia": "-",
    "notes": "-",
    "registerDate": "-"
  },
  {
    "name": "(주)아름다운자동차공업사",
    "grade": "1급",
    "priority": "",
    "HCS": "Y",
    "phone": "010-8968-4744 (박봉춘)",
    "address": "충청남도 아산시 모산로 30 (배방읍)",
    "lat": "36.7720988",
    "lng": "127.0462128",
    "monthlyCapacity": "ㅇㅇ대",
    "currentIncoming": "ㅇㅇ대",
    "possibleIncoming": "ㅇㅇ대",
    "repairGeneral": "ⅹ",
    "repairAccident": "○",
    "pointHyundai": "-",
    "pointKia": "-",
    "notes": "-",
    "registerDate": "-"
  },
  {
    "name": "(주)오토월드자동차",
    "grade": "1급",
    "priority": "",
    "HCS": "Y",
    "phone": "010-2819-8912 (장영희)",
    "address": "충청북도 음성군 대금로 672 (대소면)",
    "lat": "36.9713384",
    "lng": "127.5114206",
    "monthlyCapacity": "ㅇㅇ대",
    "currentIncoming": "ㅇㅇ대",
    "possibleIncoming": "ㅇㅇ대",
    "repairGeneral": "ⅹ",
    "repairAccident": "○",
    "pointHyundai": "-",
    "pointKia": "-",
    "notes": "-",
    "registerDate": "-"
  },
  {
    "name": "(주)우석공업사",
    "grade": "1급",
    "priority": 1,
    "HCS": "Y",
    "phone": "010-3743-5449 (이기엽)",
    "address": "경기도 평택시 노루댕이1길 14 (장당동)",
    "lat": "37.0445414",
    "lng": "127.0637983",
    "monthlyCapacity": "ㅇㅇ대",
    "currentIncoming": "ㅇㅇ대",
    "possibleIncoming": "ㅇㅇ대",
    "repairGeneral": "○",
    "repairAccident": "○",
    "pointHyundai": "-",
    "pointKia": "-",
    "notes": "(검사가능)",
    "registerDate": "-"
  },
  {
    "name": "(주)원진자동차",
    "grade": "1급",
    "priority": 1,
    "HCS": "Y",
    "phone": "010-4026-9550 (신혁진)",
    "address": "경기도 고양시 일산동구 성현로 151 (성석동)",
    "lat": "37.7091164",
    "lng": "126.8026945",
    "monthlyCapacity": "ㅇㅇ대",
    "currentIncoming": "ㅇㅇ대",
    "possibleIncoming": "ㅇㅇ대",
    "repairGeneral": "ⅹ",
    "repairAccident": "○",
    "pointHyundai": "-",
    "pointKia": "-",
    "notes": "-",
    "registerDate": "-"
  },
  {
    "name": "(주)트루모터스",
    "grade": "1급",
    "priority": 1,
    "HCS": "Y",
    "phone": "010-9073-4280 (이상열)",
    "address": "서울특별시 성동구 연무장길 87 (성수동2가)",
    "lat": "37.5416245",
    "lng": "127.0589631",
    "monthlyCapacity": "ㅇㅇ대",
    "currentIncoming": "ㅇㅇ대",
    "possibleIncoming": "ㅇㅇ대",
    "repairGeneral": "ⅹ",
    "repairAccident": "○",
    "pointHyundai": "-",
    "pointKia": "-",
    "notes": "-",
    "registerDate": "-"
  },
  {
    "name": "(주)현대오토모터스",
    "grade": "1급",
    "priority": "",
    "HCS": "N",
    "phone": "028588600",
    "address": "서울특별시 금천구 두산로 3 (독산동)",
    "lat": "37.4708319",
    "lng": "126.8882694",
    "monthlyCapacity": "ㅇㅇ대",
    "currentIncoming": "ㅇㅇ대",
    "possibleIncoming": "ㅇㅇ대",
    "repairGeneral": "ⅹ",
    "repairAccident": "○",
    "pointHyundai": "-",
    "pointKia": "-",
    "notes": "-",
    "registerDate": "-"
  },
  {
    "name": "1급서평택자동차공업사",
    "grade": "1급",
    "priority": "",
    "HCS": "N",
    "phone": "0316840064",
    "address": "경기도 평택시 원원정길 15-17 (포승읍)",
    "lat": "36.9956777",
    "lng": "126.8459015",
    "monthlyCapacity": "ㅇㅇ대",
    "currentIncoming": "ㅇㅇ대",
    "possibleIncoming": "ㅇㅇ대",
    "repairGeneral": "ⅹ",
    "repairAccident": "○",
    "pointHyundai": "-",
    "pointKia": "-",
    "notes": "-",
    "registerDate": "-"
  },
  {
    "name": "1급오창호수모터스",
    "grade": "1급",
    "priority": "",
    "HCS": "Y",
    "phone": "010-9287-2270 (박준구)",
    "address": "충청북도 청주시 청원구 각리가곡로 459 (오창읍)",
    "lat": "36.7057409",
    "lng": "127.4496907",
    "monthlyCapacity": "ㅇㅇ대",
    "currentIncoming": "ㅇㅇ대",
    "possibleIncoming": "ㅇㅇ대",
    "repairGeneral": "ⅹ",
    "repairAccident": "○",
    "pointHyundai": "-",
    "pointKia": "-",
    "notes": "-",
    "registerDate": "-"
  },
  {
    "name": "1급정우자동차",
    "grade": "1급",
    "priority": "",
    "HCS": "Y",
    "phone": "010-5500-8558 (김승복)",
    "address": "경기도 양주시 양주산성로 838-14 (백석읍)",
    "lat": "37.7932470",
    "lng": "126.9695112",
    "monthlyCapacity": "ㅇㅇ대",
    "currentIncoming": "ㅇㅇ대",
    "possibleIncoming": "ㅇㅇ대",
    "repairGeneral": "ⅹ",
    "repairAccident": "○",
    "pointHyundai": "-",
    "pointKia": "-",
    "notes": "-",
    "registerDate": "-"
  },
  {
    "name": "JK공업사",
    "grade": "1급",
    "priority": "",
    "HCS": "Y",
    "phone": "010-9449-9696 (김재경)",
    "address": "경기도 파주시 아리랑로 8 (금촌동)",
    "lat": "37.7620471",
    "lng": "126.7677884",
    "monthlyCapacity": "ㅇㅇ대",
    "currentIncoming": "ㅇㅇ대",
    "possibleIncoming": "ㅇㅇ대",
    "repairGeneral": "ⅹ",
    "repairAccident": "○",
    "pointHyundai": "-",
    "pointKia": "-",
    "notes": "-",
    "registerDate": "-"
  },
  {
    "name": "JS모터스",
    "grade": "1급",
    "priority": "",
    "HCS": "Y",
    "phone": "010-7990-4516 (김수진)",
    "address": "경기도 안성시 종합운동장로 43 (금광면)",
    "lat": "37.0029789",
    "lng": "127.3242151",
    "monthlyCapacity": "ㅇㅇ대",
    "currentIncoming": "ㅇㅇ대",
    "possibleIncoming": "ㅇㅇ대",
    "repairGeneral": "ⅹ",
    "repairAccident": "○",
    "pointHyundai": "-",
    "pointKia": "-",
    "notes": "-",
    "registerDate": "-"
  },
  {
    "name": "공주종합모터스",
    "grade": "1급",
    "priority": "",
    "HCS": "Y",
    "phone": "010-6829-3322 (조은주)",
    "address": "충청남도 공주시 장척로 30 (송선동)",
    "lat": "36.4838713",
    "lng": "127.1694964",
    "monthlyCapacity": "ㅇㅇ대",
    "currentIncoming": "ㅇㅇ대",
    "possibleIncoming": "ㅇㅇ대",
    "repairGeneral": "ⅹ",
    "repairAccident": "○",
    "pointHyundai": "-",
    "pointKia": "-",
    "notes": "-",
    "registerDate": "-"
  },
  {
    "name": "광일자동차서비스",
    "grade": "1급",
    "priority": "",
    "HCS": "Y",
    "phone": "010-7268-7232 (신유미)",
    "address": "전라남도 목포시 고하대로 863 (연산동)",
    "lat": "34.8206962",
    "lng": "126.3840565",
    "monthlyCapacity": "ㅇㅇ대",
    "currentIncoming": "ㅇㅇ대",
    "possibleIncoming": "ㅇㅇ대",
    "repairGeneral": "ⅹ",
    "repairAccident": "○",
    "pointHyundai": "-",
    "pointKia": "-",
    "notes": "(상용겸용)",
    "registerDate": "-"
  },
  {
    "name": "규석카독크(현대)",
    "grade": "1급",
    "priority": "",
    "HCS": "N",
    "phone": "0222992020",
    "address": "서울특별시 성동구 마조로18길 2 (마장동)",
    "lat": "37.5647732",
    "lng": "127.0419957",
    "monthlyCapacity": "ㅇㅇ대",
    "currentIncoming": "ㅇㅇ대",
    "possibleIncoming": "ㅇㅇ대",
    "repairGeneral": "ⅹ",
    "repairAccident": "○",
    "pointHyundai": "○",
    "pointKia": "-",
    "notes": "-",
    "registerDate": "-"
  },
  {
    "name": "남대구서비스",
    "grade": "1급",
    "priority": "",
    "HCS": "Y",
    "phone": "010-6789-5916 (신금분)",
    "address": "대구광역시 달서구 성서공단로61길 12 (장동)",
    "lat": "35.8370121",
    "lng": "128.5171622",
    "monthlyCapacity": "ㅇㅇ대",
    "currentIncoming": "ㅇㅇ대",
    "possibleIncoming": "ㅇㅇ대",
    "repairGeneral": "ⅹ",
    "repairAccident": "○",
    "pointHyundai": "-",
    "pointKia": "-",
    "notes": "-",
    "registerDate": "-"
  },
  {
    "name": "남부자동차서비스",
    "grade": "1급",
    "priority": 1,
    "HCS": "Y",
    "phone": "010-6587-7713 (김용열)",
    "address": "경기도 부천시 경인로138번길 9 (송내동)",
    "lat": "37.4837503",
    "lng": "126.7713587",
    "monthlyCapacity": "ㅇㅇ대",
    "currentIncoming": "ㅇㅇ대",
    "possibleIncoming": "ㅇㅇ대",
    "repairGeneral": "ⅹ",
    "repairAccident": "○",
    "pointHyundai": "-",
    "pointKia": "-",
    "notes": "-",
    "registerDate": "-"
  },
  {
    "name": "대운자동차정비공업사",
    "grade": "1급",
    "priority": "",
    "HCS": "Y",
    "phone": "010-8420-0112 (정찬현)",
    "address": "경상남도 진주시 대신로115번길 12 (상평동)",
    "lat": "35.1708500",
    "lng": "128.1169229",
    "monthlyCapacity": "ㅇㅇ대",
    "currentIncoming": "ㅇㅇ대",
    "possibleIncoming": "ㅇㅇ대",
    "repairGeneral": "ⅹ",
    "repairAccident": "○",
    "pointHyundai": "-",
    "pointKia": "-",
    "notes": "-",
    "registerDate": "-"
  },
  {
    "name": "동광양자동차공업사",
    "grade": "1급",
    "priority": "",
    "HCS": "Y",
    "phone": "010-6602-4599 (이수정)",
    "address": "전남 광양시 느지매기길 105 ()",
    "lat": "34.9557504",
    "lng": "127.6767489",
    "monthlyCapacity": "ㅇㅇ대",
    "currentIncoming": "ㅇㅇ대",
    "possibleIncoming": "ㅇㅇ대",
    "repairGeneral": "ⅹ",
    "repairAccident": "○",
    "pointHyundai": "-",
    "pointKia": "-",
    "notes": "-",
    "registerDate": "-"
  },
  {
    "name": "동성엔대림종합정비",
    "grade": "1급",
    "priority": "",
    "HCS": "Y",
    "phone": "010-4175-1185 (장기규)",
    "address": "경상남도 사천시 항공로 54 (사천읍, 동성1급정비)",
    "lat": "35.0809659",
    "lng": "128.0770864",
    "monthlyCapacity": "ㅇㅇ대",
    "currentIncoming": "ㅇㅇ대",
    "possibleIncoming": "ㅇㅇ대",
    "repairGeneral": "ⅹ",
    "repairAccident": "○",
    "pointHyundai": "-",
    "pointKia": "-",
    "notes": "-",
    "registerDate": "-"
  },
  {
    "name": "동우자동차공업사",
    "grade": "1급",
    "priority": "",
    "HCS": "Y",
    "phone": "010-2651-9813 (윤철)",
    "address": "서울특별시 도봉구 방학로 45 (방학동, 방학동정비공장)",
    "lat": "37.6624088",
    "lng": "127.0471185",
    "monthlyCapacity": "ㅇㅇ대",
    "currentIncoming": "ㅇㅇ대",
    "possibleIncoming": "ㅇㅇ대",
    "repairGeneral": "ⅹ",
    "repairAccident": "○",
    "pointHyundai": "-",
    "pointKia": "-",
    "notes": "-",
    "registerDate": "-"
  },
  {
    "name": "동전주모터스",
    "grade": "1급",
    "priority": "",
    "HCS": "N",
    "phone": "0632440601",
    "address": "전북특별자치도 완주군 구억명덕로 7 (용진읍)",
    "lat": "35.8762350",
    "lng": "127.1580768",
    "monthlyCapacity": "ㅇㅇ대",
    "currentIncoming": "ㅇㅇ대",
    "possibleIncoming": "ㅇㅇ대",
    "repairGeneral": "ⅹ",
    "repairAccident": "○",
    "pointHyundai": "-",
    "pointKia": "-",
    "notes": "-",
    "registerDate": "-"
  },
  {
    "name": "별내현대서비스(현대)",
    "grade": "1급",
    "priority": "",
    "HCS": "N",
    "phone": "15880501",
    "address": "경기도 남양주시 송산로 356 (별내동)",
    "lat": "37.6733894",
    "lng": "127.1343605",
    "monthlyCapacity": "ㅇㅇ대",
    "currentIncoming": "ㅇㅇ대",
    "possibleIncoming": "ㅇㅇ대",
    "repairGeneral": "ⅹ",
    "repairAccident": "○",
    "pointHyundai": "○",
    "pointKia": "-",
    "notes": "-",
    "registerDate": "-"
  },
  {
    "name": "봉화자동차1급공업사",
    "grade": "1급",
    "priority": "",
    "HCS": "Y",
    "phone": "010-6623-2646 (정현주)",
    "address": "전라남도 순천시 율촌산단4로 77-53 (해룡면)",
    "lat": "34.9022369",
    "lng": "127.5868963",
    "monthlyCapacity": "ㅇㅇ대",
    "currentIncoming": "ㅇㅇ대",
    "possibleIncoming": "ㅇㅇ대",
    "repairGeneral": "ⅹ",
    "repairAccident": "○",
    "pointHyundai": "-",
    "pointKia": "-",
    "notes": "-",
    "registerDate": "-"
  },
  {
    "name": "부강자동차공업사",
    "grade": "1급",
    "priority": "",
    "HCS": "Y",
    "phone": "010-2689-7238 (신경식)",
    "address": "제주특별자치도 서귀포시 서성일로 904 (성산읍)",
    "lat": "33.4389165",
    "lng": "126.8762994",
    "monthlyCapacity": "ㅇㅇ대",
    "currentIncoming": "ㅇㅇ대",
    "possibleIncoming": "ㅇㅇ대",
    "repairGeneral": "ⅹ",
    "repairAccident": "○",
    "pointHyundai": "-",
    "pointKia": "-",
    "notes": "-",
    "registerDate": "-"
  },
  {
    "name": "비엠1급현대공업사",
    "grade": "2급",
    "priority": "",
    "HCS": "N",
    "phone": "0315598001",
    "address": "경기도 남양주시 경춘로 1759 (화도읍)",
    "lat": "37.6574170",
    "lng": "127.2861030",
    "monthlyCapacity": "ㅇㅇ대",
    "currentIncoming": "ㅇㅇ대",
    "possibleIncoming": "ㅇㅇ대",
    "repairGeneral": "ⅹ",
    "repairAccident": "○",
    "pointHyundai": "-",
    "pointKia": "-",
    "notes": "-",
    "registerDate": "-"
  },
  {
    "name": "삼성자동차정비",
    "grade": "1급",
    "priority": "",
    "HCS": "Y",
    "phone": "010-5368-0661 (이명재)",
    "address": "경상북도 김천시 백옥1길 5 (백옥동)",
    "lat": "36.1246342",
    "lng": "128.0821653",
    "monthlyCapacity": "ㅇㅇ대",
    "currentIncoming": "ㅇㅇ대",
    "possibleIncoming": "ㅇㅇ대",
    "repairGeneral": "ⅹ",
    "repairAccident": "○",
    "pointHyundai": "-",
    "pointKia": "-",
    "notes": "-",
    "registerDate": "-"
  },
  {
    "name": "삼원자동차공업사",
    "grade": "1급",
    "priority": "",
    "HCS": "Y",
    "phone": "010-5336-3530 (안지원)",
    "address": "제주특별자치도 서귀포시 상모대서로 68 (대정읍)",
    "lat": "33.2280845",
    "lng": "126.2603511",
    "monthlyCapacity": "ㅇㅇ대",
    "currentIncoming": "ㅇㅇ대",
    "possibleIncoming": "ㅇㅇ대",
    "repairGeneral": "ⅹ",
    "repairAccident": "○",
    "pointHyundai": "-",
    "pointKia": "-",
    "notes": "-",
    "registerDate": "-"
  },
  {
    "name": "삽진공업사(현대)",
    "grade": "1급",
    "priority": "",
    "HCS": "N",
    "phone": "0612787103",
    "address": "전라남도 목포시 대양로13번길 12 (연산동)",
    "lat": "34.8230904",
    "lng": "126.3832706",
    "monthlyCapacity": "ㅇㅇ대",
    "currentIncoming": "ㅇㅇ대",
    "possibleIncoming": "ㅇㅇ대",
    "repairGeneral": "ⅹ",
    "repairAccident": "○",
    "pointHyundai": "○",
    "pointKia": "-",
    "notes": "-",
    "registerDate": "-"
  },
  {
    "name": "서대전현대블루핸즈(현대)",
    "grade": "1급",
    "priority": "",
    "HCS": "N",
    "phone": "0422217266",
    "address": "대전광역시 서구 가수원로 103-13 (가수원동)",
    "lat": "36.3031022",
    "lng": "127.3486155",
    "monthlyCapacity": "ㅇㅇ대",
    "currentIncoming": "ㅇㅇ대",
    "possibleIncoming": "ㅇㅇ대",
    "repairGeneral": "ⅹ",
    "repairAccident": "○",
    "pointHyundai": "○",
    "pointKia": "-",
    "notes": "-",
    "registerDate": "-"
  },
  {
    "name": "성광자동차정비공장",
    "grade": "1급",
    "priority": "",
    "HCS": "Y",
    "phone": "010-3538-2457 (윤탄출)",
    "address": "경상북도 안동시 경동로 958 (용상동)",
    "lat": "36.5542421",
    "lng": "128.7582376",
    "monthlyCapacity": "ㅇㅇ대",
    "currentIncoming": "ㅇㅇ대",
    "possibleIncoming": "ㅇㅇ대",
    "repairGeneral": "ⅹ",
    "repairAccident": "○",
    "pointHyundai": "-",
    "pointKia": "-",
    "notes": "-",
    "registerDate": "-"
  },
  {
    "name": "세중자동차공업사",
    "grade": "1급",
    "priority": "",
    "HCS": "N",
    "phone": "0325748067",
    "address": "인천광역시 서구 중봉대로240번길 19 (석남동)",
    "lat": "37.5011107",
    "lng": "126.6507559",
    "monthlyCapacity": "ㅇㅇ대",
    "currentIncoming": "ㅇㅇ대",
    "possibleIncoming": "ㅇㅇ대",
    "repairGeneral": "ⅹ",
    "repairAccident": "○",
    "pointHyundai": "-",
    "pointKia": "-",
    "notes": "-",
    "registerDate": "-"
  },
  {
    "name": "순호자동차공업사",
    "grade": "1급",
    "priority": "",
    "HCS": "Y",
    "phone": "010-9465-4800 (이철)",
    "address": "강원도 원주시 북원로 2807 (태장동)",
    "lat": "37.3941796",
    "lng": "127.9501474",
    "monthlyCapacity": "ㅇㅇ대",
    "currentIncoming": "ㅇㅇ대",
    "possibleIncoming": "ㅇㅇ대",
    "repairGeneral": "ⅹ",
    "repairAccident": "○",
    "pointHyundai": "-",
    "pointKia": "-",
    "notes": "(상용겸용)",
    "registerDate": "-"
  },
  {
    "name": "스마일카관리서비스",
    "grade": "1급",
    "priority": "",
    "HCS": "Y",
    "phone": "010-3622-1077 (이정학)",
    "address": "광주 광산구 북문대로 629-15 ()",
    "lat": "35.2074007",
    "lng": "126.8320266",
    "monthlyCapacity": "ㅇㅇ대",
    "currentIncoming": "ㅇㅇ대",
    "possibleIncoming": "ㅇㅇ대",
    "repairGeneral": "ⅹ",
    "repairAccident": "○",
    "pointHyundai": "-",
    "pointKia": "-",
    "notes": "-",
    "registerDate": "-"
  },
  {
    "name": "스마트종합정비",
    "grade": "1급",
    "priority": "",
    "HCS": "Y",
    "phone": "010-2271-8501 (김영수)",
    "address": "경상남도 양산시 북정공단1길 63 (북정동, 미성강업)",
    "lat": "35.3664459",
    "lng": "129.0442830",
    "monthlyCapacity": "ㅇㅇ대",
    "currentIncoming": "ㅇㅇ대",
    "possibleIncoming": "ㅇㅇ대",
    "repairGeneral": "ⅹ",
    "repairAccident": "○",
    "pointHyundai": "-",
    "pointKia": "-",
    "notes": "-",
    "registerDate": "-"
  },
  {
    "name": "신장유자동차종합정비",
    "grade": "1급",
    "priority": "",
    "HCS": "Y",
    "phone": "010-3721-4508 (윤창식)",
    "address": "경상남도 김해시 장유로115번길 1 (부곡동)",
    "lat": "35.2115533",
    "lng": "128.8009044",
    "monthlyCapacity": "ㅇㅇ대",
    "currentIncoming": "ㅇㅇ대",
    "possibleIncoming": "ㅇㅇ대",
    "repairGeneral": "ⅹ",
    "repairAccident": "○",
    "pointHyundai": "-",
    "pointKia": "-",
    "notes": "-",
    "registerDate": "-"
  },
  {
    "name": "씨엘티앤알(씨엘정비공장)",
    "grade": "1급",
    "priority": "",
    "HCS": "Y",
    "phone": "010-8962-2027 (이영희)",
    "address": "울산광역시 남구 처용로 40 (여천동)",
    "lat": "35.5143321",
    "lng": "129.3417282",
    "monthlyCapacity": "ㅇㅇ대",
    "currentIncoming": "ㅇㅇ대",
    "possibleIncoming": "ㅇㅇ대",
    "repairGeneral": "ⅹ",
    "repairAccident": "○",
    "pointHyundai": "-",
    "pointKia": "-",
    "notes": "(상용겸용)",
    "registerDate": "-"
  },
  {
    "name": "에이더블유피",
    "grade": "2급",
    "priority": 1,
    "HCS": "N",
    "phone": "010-5219-8874 (이은철)",
    "address": "경기 성남시 분당구 새마을로51번길 14",
    "lat": 37.3839716,
    "lng": 127.137693,
    "monthlyCapacity": "ㅇㅇ대",
    "currentIncoming": "ㅇㅇ대",
    "possibleIncoming": "ㅇㅇ대",
    "repairGeneral": "ⅹ",
    "repairAccident": "○",
    "pointHyundai": "-",
    "pointKia": "-",
    "notes": "-",
    "registerDate": "-"
  },
  {
    "name": "아트샵모터스",
    "grade": "1급",
    "priority": "",
    "HCS": "Y",
    "phone": "010-8758-7970 (이희정)",
    "address": "인천 서구 봉수대로 251 ()",
    "lat": "37.4980062",
    "lng": "126.6609014",
    "monthlyCapacity": "ㅇㅇ대",
    "currentIncoming": "ㅇㅇ대",
    "possibleIncoming": "ㅇㅇ대",
    "repairGeneral": "ⅹ",
    "repairAccident": "○",
    "pointHyundai": "-",
    "pointKia": "-",
    "notes": "(예약必)",
    "registerDate": "-"
  },
  {
    "name": "에이스정비사업소",
    "grade": "1급",
    "priority": "",
    "HCS": "N",
    "phone": "0319134949",
    "address": "경기도 고양시 일산서구 경의로 832 (덕이동)",
    "lat": "37.6918754",
    "lng": "126.7599402",
    "monthlyCapacity": "ㅇㅇ대",
    "currentIncoming": "ㅇㅇ대",
    "possibleIncoming": "ㅇㅇ대",
    "repairGeneral": "ⅹ",
    "repairAccident": "○",
    "pointHyundai": "-",
    "pointKia": "-",
    "notes": "-",
    "registerDate": "-"
  },
  {
    "name": "오토맥스",
    "grade": "1급",
    "priority": "",
    "HCS": "Y",
    "phone": "010-9472-4920 (이수정)",
    "address": "경기도 안양시 동안구 흥안대로439번길 67-1 (관양동)",
    "lat": "37.3927703",
    "lng": "126.9707131",
    "monthlyCapacity": "ㅇㅇ대",
    "currentIncoming": "ㅇㅇ대",
    "possibleIncoming": "ㅇㅇ대",
    "repairGeneral": "ⅹ",
    "repairAccident": "○",
    "pointHyundai": "-",
    "pointKia": "-",
    "notes": "-",
    "registerDate": "-"
  },
  {
    "name": "우신종합자동차정비",
    "grade": "1급",
    "priority": "",
    "HCS": "Y",
    "phone": "010-7460-1128 (권상렬)",
    "address": "경상북도 경주시 외외1길 166 (충효동)",
    "lat": "35.8337787",
    "lng": "129.1628909",
    "monthlyCapacity": "ㅇㅇ대",
    "currentIncoming": "ㅇㅇ대",
    "possibleIncoming": "ㅇㅇ대",
    "repairGeneral": "ⅹ",
    "repairAccident": "○",
    "pointHyundai": "-",
    "pointKia": "-",
    "notes": "(덴트가능)",
    "registerDate": "-"
  },
  {
    "name": "운산1급자동차정비공장",
    "grade": "1급",
    "priority": "",
    "HCS": "Y",
    "phone": "010-3784-4100 (유세종)",
    "address": "경기도 광명시 구름산로 43 (하안동)",
    "lat": "37.4576958",
    "lng": "126.8778855",
    "monthlyCapacity": "ㅇㅇ대",
    "currentIncoming": "ㅇㅇ대",
    "possibleIncoming": "ㅇㅇ대",
    "repairGeneral": "ⅹ",
    "repairAccident": "○",
    "pointHyundai": "-",
    "pointKia": "-",
    "notes": "-",
    "registerDate": "-"
  },
  {
    "name": "울산현대상용서비스(현대)",
    "grade": "1급",
    "priority": "",
    "HCS": "N",
    "phone": "0522864747",
    "address": "울산광역시 북구 산업로 1515 (신천동)",
    "lat": "35.6446199",
    "lng": "129.3422367",
    "monthlyCapacity": "ㅇㅇ대",
    "currentIncoming": "ㅇㅇ대",
    "possibleIncoming": "ㅇㅇ대",
    "repairGeneral": "○",
    "repairAccident": "○",
    "pointHyundai": "○",
    "pointKia": "-",
    "notes": "(상용겸용)",
    "registerDate": "-"
  },
  {
    "name": "유너모터스",
    "grade": "1급",
    "priority": 1,
    "HCS": "Y",
    "phone": "010-6846-0899 (김열)",
    "address": "인천광역시 미추홀구 염전로 381 (주안동)",
    "lat": "37.4703718",
    "lng": "126.6823328",
    "monthlyCapacity": "ㅇㅇ대",
    "currentIncoming": "ㅇㅇ대",
    "possibleIncoming": "ㅇㅇ대",
    "repairGeneral": "ⅹ",
    "repairAccident": "○",
    "pointHyundai": "-",
    "pointKia": "-",
    "notes": "-",
    "registerDate": "-"
  },
  {
    "name": "인천21세기자동차",
    "grade": "1급",
    "priority": "",
    "HCS": "N",
    "phone": "0328632580",
    "address": "인천광역시 미추홀구 석정로333번길 2 (도화동, 유성택시)",
    "lat": "37.4680409",
    "lng": "126.6723878",
    "monthlyCapacity": "ㅇㅇ대",
    "currentIncoming": "ㅇㅇ대",
    "possibleIncoming": "ㅇㅇ대",
    "repairGeneral": "ⅹ",
    "repairAccident": "○",
    "pointHyundai": "-",
    "pointKia": "-",
    "notes": "-",
    "registerDate": "-"
  },
  {
    "name": "인천오토컴퍼니",
    "grade": "1급",
    "priority": "",
    "HCS": "Y",
    "phone": "010-4303-3282 (이용우)",
    "address": "인천 중구 서해대로180번길 65 ()",
    "lat": "37.4419071",
    "lng": "126.6287997",
    "monthlyCapacity": "ㅇㅇ대",
    "currentIncoming": "ㅇㅇ대",
    "possibleIncoming": "ㅇㅇ대",
    "repairGeneral": "ⅹ",
    "repairAccident": "○",
    "pointHyundai": "-",
    "pointKia": "-",
    "notes": "(수입차 사고수리 가능)",
    "registerDate": "-"
  },
  {
    "name": "일급혁신자동차",
    "grade": "1급",
    "priority": "",
    "HCS": "Y",
    "phone": "010-5172-3150 (장재영)",
    "address": "전라남도 나주시 교원교촌길 22-3 (남평읍, 1급자동차정비소)",
    "lat": "35.0350465",
    "lng": "126.8382934",
    "monthlyCapacity": "ㅇㅇ대",
    "currentIncoming": "ㅇㅇ대",
    "possibleIncoming": "ㅇㅇ대",
    "repairGeneral": "ⅹ",
    "repairAccident": "○",
    "pointHyundai": "-",
    "pointKia": "-",
    "notes": "-",
    "registerDate": "-"
  },
  {
    "name": "자일제주서비스(주)",
    "grade": "1급",
    "priority": "",
    "HCS": "Y",
    "phone": "010-4597-3264 (김창내)",
    "address": "제주특별자치도 제주시 선반남2길 63 (화북일동)",
    "lat": "33.5128761",
    "lng": "126.5663550",
    "monthlyCapacity": "ㅇㅇ대",
    "currentIncoming": "ㅇㅇ대",
    "possibleIncoming": "ㅇㅇ대",
    "repairGeneral": "ⅹ",
    "repairAccident": "○",
    "pointHyundai": "-",
    "pointKia": "-",
    "notes": "-",
    "registerDate": "-"
  },
  {
    "name": "제이에스모터스(현대)",
    "grade": "1급",
    "priority": "",
    "HCS": "N",
    "phone": "028510003",
    "address": "서울특별시 구로구 가마산로 77 (구로동)",
    "lat": "37.4856545",
    "lng": "126.8750701",
    "monthlyCapacity": "ㅇㅇ대",
    "currentIncoming": "ㅇㅇ대",
    "possibleIncoming": "ㅇㅇ대",
    "repairGeneral": "ⅹ",
    "repairAccident": "○",
    "pointHyundai": "○",
    "pointKia": "-",
    "notes": "-",
    "registerDate": "-"
  },
  {
    "name": "제일모터스",
    "grade": "1급",
    "priority": "",
    "HCS": "N",
    "phone": "0328818282",
    "address": "인천광역시 중구 서해대로 120 (신흥동3가)",
    "lat": "37.4392645",
    "lng": "126.6191062",
    "monthlyCapacity": "ㅇㅇ대",
    "currentIncoming": "ㅇㅇ대",
    "possibleIncoming": "ㅇㅇ대",
    "repairGeneral": "ⅹ",
    "repairAccident": "○",
    "pointHyundai": "-",
    "pointKia": "-",
    "notes": "-",
    "registerDate": "-"
  },
  {
    "name": "제일자동차공업사",
    "grade": "1급",
    "priority": "",
    "HCS": "Y",
    "phone": "010-9436-2644 (김학열)",
    "address": "전라북도 부안군 행안중앙로 8 (행안면, 제일자동차공업사)",
    "lat": "35.7125043",
    "lng": "126.7124467",
    "monthlyCapacity": "ㅇㅇ대",
    "currentIncoming": "ㅇㅇ대",
    "possibleIncoming": "ㅇㅇ대",
    "repairGeneral": "ⅹ",
    "repairAccident": "입고중지",
    "pointHyundai": "-",
    "pointKia": "-",
    "notes": "-",
    "registerDate": "-"
  },
  {
    "name": "제일정비공장(구미)",
    "grade": "1급",
    "priority": "",
    "HCS": "Y",
    "phone": "010-3862-4900 (이준걸)",
    "address": "경상북도 구미시 화신로8길 4-23 (광평동)",
    "lat": "36.1132051",
    "lng": "128.3581490",
    "monthlyCapacity": "ㅇㅇ대",
    "currentIncoming": "ㅇㅇ대",
    "possibleIncoming": "ㅇㅇ대",
    "repairGeneral": "ⅹ",
    "repairAccident": "○",
    "pointHyundai": "-",
    "pointKia": "-",
    "notes": "-",
    "registerDate": "-"
  },
  {
    "name": "주식회사 에이치앤티모터스",
    "grade": "1급",
    "priority": "",
    "HCS": "N",
    "phone": "0236616461",
    "address": "서울특별시 영등포구 선유로 155 (양평동3가)",
    "lat": "37.5278076",
    "lng": "126.8910316",
    "monthlyCapacity": "ㅇㅇ대",
    "currentIncoming": "ㅇㅇ대",
    "possibleIncoming": "ㅇㅇ대",
    "repairGeneral": "ⅹ",
    "repairAccident": "입고중지",
    "pointHyundai": "-",
    "pointKia": "-",
    "notes": "(검사가능)",
    "registerDate": "20250916"
  },
  {
    "name": "주식회사일급서울정비공업사",
    "grade": "1급",
    "priority": "",
    "HCS": "Y",
    "phone": "010-5631-6105 (이윤종)",
    "address": "충청북도 청주시 서원구 양촌4길 5 (남이면)",
    "lat": "36.5934916",
    "lng": "127.4751865",
    "monthlyCapacity": "ㅇㅇ대",
    "currentIncoming": "ㅇㅇ대",
    "possibleIncoming": "ㅇㅇ대",
    "repairGeneral": "ⅹ",
    "repairAccident": "○",
    "pointHyundai": "-",
    "pointKia": "-",
    "notes": "(상용겸용)",
    "registerDate": "-"
  },
  {
    "name": "중랑자동차공업주식회사",
    "grade": "1급",
    "priority": "",
    "HCS": "Y",
    "phone": "010-3738-0265 (최동래)",
    "address": "서울특별시 중랑구 망우로 189 (중화동, 중랑자동차공업(주))",
    "lat": "37.5938447",
    "lng": "127.0737281",
    "monthlyCapacity": "ㅇㅇ대",
    "currentIncoming": "ㅇㅇ대",
    "possibleIncoming": "ㅇㅇ대",
    "repairGeneral": "ⅹ",
    "repairAccident": "○",
    "pointHyundai": "-",
    "pointKia": "-",
    "notes": "(상용겸용)",
    "registerDate": "-"
  },
  {
    "name": "월평정비검사장",
    "grade": "1급",
    "priority": 1,
    "HCS": "Y",
    "phone": "010-3455-3040 (김정부)",
    "address": "대전광역시 서구 월드컵대로 484번길 148-4",
    "lat": "36.3438977",
    "lng": "127.354012",
    "monthlyCapacity": "ㅇㅇ대",
    "currentIncoming": "ㅇㅇ대",
    "possibleIncoming": "ㅇㅇ대",
    "repairGeneral": "ⅹ",
    "repairAccident": "○",
    "pointHyundai": "-",
    "pointKia": "-",
    "notes": "-",
    "registerDate": 20250731
  },
{
    "name": "통정모터스",
    "grade": "1급",
    "priority": 1,
    "HCS": "Y",
    "phone": "010-9796-0805 (김선우)",
    "address": "충청남도 천안시 동남구 서부대로 187",
    "lat": "36.7851265",
    "lng": "127.128055",
    "monthlyCapacity": "ㅇㅇ대",
    "currentIncoming": "ㅇㅇ대",
    "possibleIncoming": "ㅇㅇ대",
    "repairGeneral": "ⅹ",
    "repairAccident": "○",
    "pointHyundai": "-",
    "pointKia": "-",
    "notes": "-",
    "registerDate": 20250731
  },
  {
    "name": "중문공업사",
    "grade": "1급",
    "priority": "",
    "HCS": "Y",
    "phone": "010-8402-9678 (유홍랑)",
    "address": "대전광역시 대덕구 대화로119번길 17 (대화동)",
    "lat": "36.3653926",
    "lng": "127.4068479",
    "monthlyCapacity": "ㅇㅇ대",
    "currentIncoming": "ㅇㅇ대",
    "possibleIncoming": "ㅇㅇ대",
    "repairGeneral": "ⅹ",
    "repairAccident": "입고중지",
    "pointHyundai": "-",
    "pointKia": "-",
    "notes": "입고중지기간 : 2025-07-22 ~ 2025-08-04",
    "registerDate": "-"
  },
  {
    "name": "진왕자동차공업사",
    "grade": "1급",
    "priority": "",
    "HCS": "Y",
    "phone": "010-7116-9301 (임낙규)",
    "address": "광주광역시 광산구 소촌로152번길 53-20 (소촌동)",
    "lat": "35.1577184",
    "lng": "126.7983492",
    "monthlyCapacity": "ㅇㅇ대",
    "currentIncoming": "ㅇㅇ대",
    "possibleIncoming": "ㅇㅇ대",
    "repairGeneral": "ⅹ",
    "repairAccident": "○",
    "pointHyundai": "-",
    "pointKia": "-",
    "notes": "-",
    "registerDate": "-"
  },
  {
    "name": "충주공업사",
    "grade": "1급",
    "priority": "",
    "HCS": "Y",
    "phone": "010-5465-6044 (방현욱)",
    "address": "충청북도 충주시 중원대로 3752-1 (용두동)",
    "lat": "36.9620507",
    "lng": "127.8902081",
    "monthlyCapacity": "ㅇㅇ대",
    "currentIncoming": "ㅇㅇ대",
    "possibleIncoming": "ㅇㅇ대",
    "repairGeneral": "ⅹ",
    "repairAccident": "○",
    "pointHyundai": "-",
    "pointKia": "-",
    "notes": "-",
    "registerDate": "-"
  },
  {
    "name": "카카오모터스",
    "grade": "1급",
    "priority": "",
    "HCS": "N",
    "phone": "0325445566",
    "address": "인천 계양구 아나지로 64 ()",
    "lat": "37.5249900",
    "lng": "126.6985636",
    "monthlyCapacity": "ㅇㅇ대",
    "currentIncoming": "ㅇㅇ대",
    "possibleIncoming": "ㅇㅇ대",
    "repairGeneral": "ⅹ",
    "repairAccident": "○",
    "pointHyundai": "-",
    "pointKia": "-",
    "notes": "타이어교환불가",
    "registerDate": "-"
  },
  {
    "name": "케이제이광진모터스",
    "grade": "1급",
    "priority": 1,
    "HCS": "N",
    "phone": "024616796",
    "address": "서울 성동구 광나루로 320-20 (광진모터스)",
    "lat": "37.5475160",
    "lng": "127.0651365",
    "monthlyCapacity": "ㅇㅇ대",
    "currentIncoming": "ㅇㅇ대",
    "possibleIncoming": "ㅇㅇ대",
    "repairGeneral": "ⅹ",
    "repairAccident": "○",
    "pointHyundai": "-",
    "pointKia": "-",
    "notes": "-",
    "registerDate": "-"
  },
    {
    "name": "넘버원팩토리",
    "grade": "2급",
    "priority": 2,
    "HCS": "Y",
    "phone": "010-4723-7235(정기영)",
    "address": "서울특별시 성동구 뚝섬로15길 23-20 (성수동2가)",
    "lat": "37.5393056",
    "lng": "127.060967",
    "monthlyCapacity": "ㅇㅇ대",
    "currentIncoming": "ㅇㅇ대",
    "possibleIncoming": "ㅇㅇ대",
    "repairGeneral": "ⅹ",
    "repairAccident": "○",
    "pointHyundai": "-",
    "pointKia": "-",
    "notes": "차순위입고",
    "registerDate": "20250731"
  },
  {
    "name": "태원정비",
    "grade": "1급",
    "priority": "",
    "HCS": "Y",
    "phone": "010-9346-9946 (유동훈)",
    "address": "부산광역시 연제구 거제대로 182 (거제동)",
    "lat": "35.1845720",
    "lng": "129.0712872",
    "monthlyCapacity": "ㅇㅇ대",
    "currentIncoming": "ㅇㅇ대",
    "possibleIncoming": "ㅇㅇ대",
    "repairGeneral": "ⅹ",
    "repairAccident": "○",
    "pointHyundai": "-",
    "pointKia": "-",
    "notes": "-",
    "registerDate": "-"
  },
  {
    "name": "태재자동차공업사",
    "grade": "1급",
    "priority": "",
    "HCS": "Y",
    "phone": "010-7166-1312 (정기식)",
    "address": "경기도 광주시 능평로 102 (오포읍)",
    "lat": "37.3498961",
    "lng": "127.1688409",
    "monthlyCapacity": "ㅇㅇ대",
    "currentIncoming": "ㅇㅇ대",
    "possibleIncoming": "ㅇㅇ대",
    "repairGeneral": "ⅹ",
    "repairAccident": "○",
    "pointHyundai": "-",
    "pointKia": "-",
    "notes": "-",
    "registerDate": "-"
  },
  {
    "name": "테크원모터스(현대)",
    "grade": "1급",
    "priority": "",
    "HCS": "N",
    "phone": "0315818585",
    "address": "경기도 가평군 태봉두밀로 34-73 (가평읍, 테크원모터스)",
    "lat": "37.8044600",
    "lng": "127.4869808",
    "monthlyCapacity": "ㅇㅇ대",
    "currentIncoming": "ㅇㅇ대",
    "possibleIncoming": "ㅇㅇ대",
    "repairGeneral": "ⅹ",
    "repairAccident": "○",
    "pointHyundai": "○",
    "pointKia": "-",
    "notes": "-",
    "registerDate": "-"
  },
  {
    "name": "통진현대블루핸즈(현대)",
    "grade": "1급",
    "priority": "",
    "HCS": "N",
    "phone": "0319860335",
    "address": "경기도 김포시 서암고정로 196 (통진읍)",
    "lat": "37.7021939",
    "lng": "126.6088923",
    "monthlyCapacity": "ㅇㅇ대",
    "currentIncoming": "ㅇㅇ대",
    "possibleIncoming": "ㅇㅇ대",
    "repairGeneral": "ⅹ",
    "repairAccident": "○",
    "pointHyundai": "○",
    "pointKia": "-",
    "notes": "-",
    "registerDate": "-"
  },
  {
    "name": "티에이치모터스(오산)",
    "grade": "1급",
    "priority": 1,
    "HCS": "Y",
    "phone": "010-3559-1027 (안광원)",
    "address": "경기도 오산시 청학로 108 (궐동, 티에이치모터스)",
    "lat": "37.1584787",
    "lng": "127.0647336",
    "monthlyCapacity": "ㅇㅇ대",
    "currentIncoming": "ㅇㅇ대",
    "possibleIncoming": "ㅇㅇ대",
    "repairGeneral": "ⅹ",
    "repairAccident": "○",
    "pointHyundai": "-",
    "pointKia": "-",
    "notes": "-",
    "registerDate": "-"
  },
  {
    "name": "평화자동차공업사(주)",
    "grade": "1급",
    "priority": "",
    "HCS": "Y",
    "phone": "010-3021-8778 (양종현)",
    "address": "전라북도 전주시 덕진구 추천로 47-24 (팔복동3가)",
    "lat": "35.8437150",
    "lng": "127.0996999",
    "monthlyCapacity": "ㅇㅇ대",
    "currentIncoming": "ㅇㅇ대",
    "possibleIncoming": "ㅇㅇ대",
    "repairGeneral": "ⅹ",
    "repairAccident": "○",
    "pointHyundai": "-",
    "pointKia": "-",
    "notes": "-",
    "registerDate": "-"
  },
  {
    "name": "포천서비스기아오토큐(기아)",
    "grade": "1급",
    "priority": "",
    "HCS": "N",
    "phone": "0315445355",
    "address": "경기도 포천시 가산로267번길 4 (가산면)",
    "lat": "37.8437136",
    "lng": "127.1802523",
    "monthlyCapacity": "ㅇㅇ대",
    "currentIncoming": "ㅇㅇ대",
    "possibleIncoming": "ㅇㅇ대",
    "repairGeneral": "ⅹ",
    "repairAccident": "○",
    "pointHyundai": "-",
    "pointKia": "○",
    "notes": "-",
    "registerDate": "-"
  },
  {
    "name": "하나정비",
    "grade": "1급",
    "priority": "",
    "HCS": "Y",
    "phone": "010-3131-4047 (변선희)",
    "address": "대구광역시 동구 안심로55길 25 (동호동)",
    "lat": "35.8683320",
    "lng": "128.7156170",
    "monthlyCapacity": "ㅇㅇ대",
    "currentIncoming": "ㅇㅇ대",
    "possibleIncoming": "ㅇㅇ대",
    "repairGeneral": "ⅹ",
    "repairAccident": "○",
    "pointHyundai": "-",
    "pointKia": "-",
    "notes": "-",
    "registerDate": "-"
  },
  {
    "name": "한결자동차서비스",
    "grade": "1급",
    "priority": "",
    "HCS": "Y",
    "phone": "010-2109-4969 (양정식)",
    "address": "광주 동구 소태길 76 ((유)한결자동차서비스)",
    "lat": "35.1206388",
    "lng": "126.9406839",
    "monthlyCapacity": "ㅇㅇ대",
    "currentIncoming": "ㅇㅇ대",
    "possibleIncoming": "ㅇㅇ대",
    "repairGeneral": "ⅹ",
    "repairAccident": "○",
    "pointHyundai": "-",
    "pointKia": "-",
    "notes": "-",
    "registerDate": "-"
  },
  {
    "name": "한국자동차기아오토큐(기아)",
    "grade": "1급",
    "priority": "",
    "HCS": "N",
    "phone": "0432765000",
    "address": "충청북도 청주시 흥덕구 공단로 104 (복대동)",
    "lat": "36.6410309",
    "lng": "127.4383880",
    "monthlyCapacity": "ㅇㅇ대",
    "currentIncoming": "ㅇㅇ대",
    "possibleIncoming": "ㅇㅇ대",
    "repairGeneral": "ⅹ",
    "repairAccident": "○",
    "pointHyundai": "-",
    "pointKia": "○",
    "notes": "-",
    "registerDate": "-"
  },
  {
    "name": "한국지엠거제서비스센타",
    "grade": "1급",
    "priority": "",
    "HCS": "Y",
    "phone": "010-2805-8007 (김정주)",
    "address": "경상남도 거제시 연하해안로 206 (연초면)",
    "lat": "34.8988261",
    "lng": "128.6306785",
    "monthlyCapacity": "ㅇㅇ대",
    "currentIncoming": "ㅇㅇ대",
    "possibleIncoming": "ㅇㅇ대",
    "repairGeneral": "ⅹ",
    "repairAccident": "○",
    "pointHyundai": "-",
    "pointKia": "-",
    "notes": "-",
    "registerDate": "-"
  },
  {
    "name": "한국지엠서인천서비스",
    "grade": "1급",
    "priority": "",
    "HCS": "N",
    "phone": "0327709900",
    "address": "인천광역시 서구 건지로 45-42 (석남동, 한국지엠동인천서비스센터)",
    "lat": "37.5026518",
    "lng": "126.6472856",
    "monthlyCapacity": "ㅇㅇ대",
    "currentIncoming": "ㅇㅇ대",
    "possibleIncoming": "ㅇㅇ대",
    "repairGeneral": "ⅹ",
    "repairAccident": "○",
    "pointHyundai": "-",
    "pointKia": "-",
    "notes": "(상용겸용)",
    "registerDate": "-"
  },
  {
    "name": "현대서부블루핸즈(현대)",
    "grade": "1급",
    "priority": "",
    "HCS": "N",
    "phone": "0626753111",
    "address": "광주광역시 서구 풍서좌로 247 (세하동, 현대서부서비스(주))",
    "lat": "35.1267128",
    "lng": "126.8428131",
    "monthlyCapacity": "ㅇㅇ대",
    "currentIncoming": "ㅇㅇ대",
    "possibleIncoming": "ㅇㅇ대",
    "repairGeneral": "ⅹ",
    "repairAccident": "○",
    "pointHyundai": "○",
    "pointKia": "-",
    "notes": "(현대,기아만 입고)",
    "registerDate": "-"
  },
  {
    "name": "현대오토종합정비",
    "grade": "1급",
    "priority": "",
    "HCS": "Y",
    "phone": "010-2352-8684 (권대한)",
    "address": "충청남도 당진시 남부로 61 (채운동, 현대오토)",
    "lat": "36.8845897",
    "lng": "126.6229675",
    "monthlyCapacity": "ㅇㅇ대",
    "currentIncoming": "ㅇㅇ대",
    "possibleIncoming": "ㅇㅇ대",
    "repairGeneral": "ⅹ",
    "repairAccident": "○",
    "pointHyundai": "-",
    "pointKia": "-",
    "notes": "-",
    "registerDate": "-"
  },
  {
    "name": "협신자동차서비스주식회사(기아)",
    "grade": "1급",
    "priority": "",
    "HCS": "N",
    "phone": "0518660038",
    "address": "부산광역시 연제구 월드컵대로 180 (거제동)",
    "lat": "35.1881360",
    "lng": "129.0771115",
    "monthlyCapacity": "ㅇㅇ대",
    "currentIncoming": "ㅇㅇ대",
    "possibleIncoming": "ㅇㅇ대",
    "repairGeneral": "ⅹ",
    "repairAccident": "○",
    "pointHyundai": "-",
    "pointKia": "○",
    "notes": "-",
    "registerDate": "-"
  },
  {
    "name": "화성서비스",
    "grade": "1급",
    "priority": "",
    "HCS": "N",
    "phone": "0313598812",
    "address": "경기 화성시 양감면 은행나무로 432-3 ()",
    "lat": "37.0959556",
    "lng": "126.9402187",
    "monthlyCapacity": "ㅇㅇ대",
    "currentIncoming": "ㅇㅇ대",
    "possibleIncoming": "ㅇㅇ대",
    "repairGeneral": "ⅹ",
    "repairAccident": "○",
    "pointHyundai": "-",
    "pointKia": "-",
    "notes": "(상용겸용)",
    "registerDate": "-"
  },
  {
    "name": "효성1급자동차공업사",
    "grade": "1급",
    "priority": "",
    "HCS": "N",
    "phone": "0316345614",
    "address": "경기도 이천시 중부대로 920 (호법면)",
    "lat": "37.2438387",
    "lng": "127.4338395",
    "monthlyCapacity": "ㅇㅇ대",
    "currentIncoming": "ㅇㅇ대",
    "possibleIncoming": "ㅇㅇ대",
    "repairGeneral": "ⅹ",
    "repairAccident": "○",
    "pointHyundai": "-",
    "pointKia": "-",
    "notes": "-",
    "registerDate": "-"
  },
  {
    "name": "(주)대신자동차정비공업사",
    "grade": "2급",
    "priority": "",
    "HCS": "N",
    "phone": "01037980953",
    "address": "서울 송파구 오금로36길 56",
    "lat": "37.4992348",
    "lng": "127.1222434",
    "monthlyCapacity": "ㅇㅇ대",
    "currentIncoming": "ㅇㅇ대",
    "possibleIncoming": "ㅇㅇ대",
    "repairGeneral": "ⅹ",
    "repairAccident": "○",
    "pointHyundai": "-",
    "pointKia": "-",
    "notes": "-",
    "registerDate": "-"
  },
  {
    "name": "(주)북부현대공업사",
    "grade": "2급",
    "priority": "",
    "HCS": "Y",
    "phone": "010-6276-6106 (김희문)",
    "address": "경기도 의정부시 용현로105번길 45-7 (민락동, 북부현대공업사)",
    "lat": "37.7431752",
    "lng": "127.0865684",
    "monthlyCapacity": "ㅇㅇ대",
    "currentIncoming": "ㅇㅇ대",
    "possibleIncoming": "ㅇㅇ대",
    "repairGeneral": "ⅹ",
    "repairAccident": "○",
    "pointHyundai": "-",
    "pointKia": "-",
    "notes": "-",
    "registerDate": "-"
  },
  {
    "name": "(주)위드모터스",
    "grade": "2급",
    "priority": 1,
    "HCS": "Y",
    "phone": "010-2041-5268 (김윤혜)",
    "address": "서울특별시 금천구 가산로 50-7 (독산동)",
    "lat": "37.4719731",
    "lng": "126.8971256",
    "monthlyCapacity": "ㅇㅇ대",
    "currentIncoming": "ㅇㅇ대",
    "possibleIncoming": "ㅇㅇ대",
    "repairGeneral": "ⅹ",
    "repairAccident": "○",
    "pointHyundai": "-",
    "pointKia": "-",
    "notes": "-",
    "registerDate": "-"
  },
  {
    "name": "가능현대공업사",
    "grade": "2급",
    "priority": 1,
    "HCS": "Y",
    "phone": "010-5878-2218 (김의석)",
    "address": "경기도 의정부시 입석로55번길 21 (가능동)",
    "lat": "37.7539411",
    "lng": "127.0192197",
    "monthlyCapacity": "ㅇㅇ대",
    "currentIncoming": "ㅇㅇ대",
    "possibleIncoming": "ㅇㅇ대",
    "repairGeneral": "ⅹ",
    "repairAccident": "○",
    "pointHyundai": "-",
    "pointKia": "-",
    "notes": "-",
    "registerDate": "-"
  },
  {
    "name": "강원21세기공업사",
    "grade": "2급",
    "priority": "",
    "HCS": "Y",
    "phone": "010-8799-5050 (변태영)",
    "address": "강원도 태백시 동태백로 1147 (통동)",
    "lat": "37.1654389",
    "lng": "129.0312874",
    "monthlyCapacity": "ㅇㅇ대",
    "currentIncoming": "ㅇㅇ대",
    "possibleIncoming": "ㅇㅇ대",
    "repairGeneral": "ⅹ",
    "repairAccident": "○",
    "pointHyundai": "-",
    "pointKia": "-",
    "notes": "-",
    "registerDate": "-"
  },
  {
    "name": "그린모터스(인천)",
    "grade": "2급",
    "priority": "",
    "HCS": "N",
    "phone": "0327517726",
    "address": "인천광역시 중구 운중로 214 (중산동)",
    "lat": "37.4993089",
    "lng": "126.5547022",
    "monthlyCapacity": "ㅇㅇ대",
    "currentIncoming": "ㅇㅇ대",
    "possibleIncoming": "ㅇㅇ대",
    "repairGeneral": "ⅹ",
    "repairAccident": "○",
    "pointHyundai": "-",
    "pointKia": "-",
    "notes": "-",
    "registerDate": "-"
  },
  {
    "name": "그린서비스",
    "grade": "2급",
    "priority": 1,
    "HCS": "Y",
    "phone": "010-8731-4974 (이유주)",
    "address": "서울 강서구 남부순환로19길 48-37 (금만물산)",
    "lat": 37.5465596,
    "lng": 126.82533,
    "monthlyCapacity": "ㅇㅇ대",
    "currentIncoming": "ㅇㅇ대",
    "possibleIncoming": "ㅇㅇ대",
    "repairGeneral": "ⅹ",
    "repairAccident": "○",
    "pointHyundai": "-",
    "pointKia": "-",
    "notes": "-",
    "registerDate": "-"
  },
  {
    "name": "금호자동차공업사",
    "grade": "2급",
    "priority": "",
    "HCS": "N",
    "phone": "0314294940",
    "address": "경기도 안양시 동안구 흥안대로427번길 76-2 (관양동)",
    "lat": "37.3929128",
    "lng": "126.9702598",
    "monthlyCapacity": "ㅇㅇ대",
    "currentIncoming": "ㅇㅇ대",
    "possibleIncoming": "ㅇㅇ대",
    "repairGeneral": "ⅹ",
    "repairAccident": "○",
    "pointHyundai": "-",
    "pointKia": "-",
    "notes": "-",
    "registerDate": "-"
  },
  {
    "name": "대월현대자동차공업사",
    "grade": "2급",
    "priority": 1,
    "HCS": "Y",
    "phone": "010-4724-5627 (김은호)",
    "address": "경기도 이천시 경충대로 1593 (대월면)",
    "lat": "37.2222546",
    "lng": "127.5243437",
    "monthlyCapacity": "ㅇㅇ대",
    "currentIncoming": "ㅇㅇ대",
    "possibleIncoming": "ㅇㅇ대",
    "repairGeneral": "ⅹ",
    "repairAccident": "○",
    "pointHyundai": "-",
    "pointKia": "-",
    "notes": "(얼라이먼트X)",
    "registerDate": "-"
  },
  {
    "name": "대한정비",
    "grade": "2급",
    "priority": "",
    "HCS": "Y",
    "phone": "010-5244-3138 (이정희)",
    "address": "경상남도 창원시 의창구 차상로8번길 64 (팔용동)",
    "lat": "35.2297145",
    "lng": "128.6400878",
    "monthlyCapacity": "ㅇㅇ대",
    "currentIncoming": "ㅇㅇ대",
    "possibleIncoming": "ㅇㅇ대",
    "repairGeneral": "ⅹ",
    "repairAccident": "○",
    "pointHyundai": "-",
    "pointKia": "-",
    "notes": "-",
    "registerDate": "-"
  },
  {
    "name": "도곡기아오토큐(기아)",
    "grade": "2급",
    "priority": "",
    "HCS": "N",
    "phone": "025757666",
    "address": "서울특별시 강남구 남부순환로381길 45 (도곡동)",
    "lat": "37.4870335",
    "lng": "127.0454498",
    "monthlyCapacity": "ㅇㅇ대",
    "currentIncoming": "ㅇㅇ대",
    "possibleIncoming": "ㅇㅇ대",
    "repairGeneral": "○",
    "repairAccident": "○",
    "pointHyundai": "-",
    "pointKia": "○",
    "notes": "-",
    "registerDate": "-"
  },
  {
    "name": "동강릉현대서비스",
    "grade": "2급",
    "priority": "",
    "HCS": "Y",
    "phone": "010-5280-7451 (이경민)",
    "address": "강원도 강릉시 월대산로 151 (두산동)",
    "lat": "37.7599218",
    "lng": "128.9270424",
    "monthlyCapacity": "ㅇㅇ대",
    "currentIncoming": "ㅇㅇ대",
    "possibleIncoming": "ㅇㅇ대",
    "repairGeneral": "ⅹ",
    "repairAccident": "○",
    "pointHyundai": "-",
    "pointKia": "-",
    "notes": "-",
    "registerDate": "-"
  },
  {
    "name": "성운종합정비",
    "grade": "2급",
    "priority": "",
    "HCS": "Y",
    "phone": "010-4532-3883 (황성운)",
    "address": "경북 포항시 북구 아치로 159 ()",
    "lat": "36.0576124",
    "lng": "129.3483710",
    "monthlyCapacity": "ㅇㅇ대",
    "currentIncoming": "ㅇㅇ대",
    "possibleIncoming": "ㅇㅇ대",
    "repairGeneral": "ⅹ",
    "repairAccident": "○",
    "pointHyundai": "-",
    "pointKia": "-",
    "notes": "-",
    "registerDate": "-"
  },
  {
    "name": "세한현대모터스",
    "grade": "2급",
    "priority": "",
    "HCS": "N",
    "phone": "0236613101",
    "address": "서울특별시 강서구 방화대로 18 (외발산동)",
    "lat": "37.5420549",
    "lng": "126.8169288",
    "monthlyCapacity": "ㅇㅇ대",
    "currentIncoming": "ㅇㅇ대",
    "possibleIncoming": "ㅇㅇ대",
    "repairGeneral": "ⅹ",
    "repairAccident": "○",
    "pointHyundai": "-",
    "pointKia": "-",
    "notes": "-",
    "registerDate": "-"
  },
  {
    "name": "신기림종합정비공장",
    "grade": "2급",
    "priority": "",
    "HCS": "Y",
    "phone": "010-6217-4006 (한준호)",
    "address": "부산광역시 금정구 공단서로18번길 76 (금사동)",
    "lat": "35.2169317",
    "lng": "129.1144883",
    "monthlyCapacity": "ㅇㅇ대",
    "currentIncoming": "ㅇㅇ대",
    "possibleIncoming": "ㅇㅇ대",
    "repairGeneral": "ⅹ",
    "repairAccident": "○",
    "pointHyundai": "-",
    "pointKia": "-",
    "notes": "-",
    "registerDate": "-"
  },
  {
    "name": "에이젠모터스",
    "grade": "2급",
    "priority": "",
    "HCS": "Y",
    "phone": "010-8909-7088 (서길원)",
    "address": "충청남도 천안시 서북구 소댕이3길 9 (성거읍)",
    "lat": "36.8712300",
    "lng": "127.1967713",
    "monthlyCapacity": "ㅇㅇ대",
    "currentIncoming": "ㅇㅇ대",
    "possibleIncoming": "ㅇㅇ대",
    "repairGeneral": "ⅹ",
    "repairAccident": "○",
    "pointHyundai": "-",
    "pointKia": "-",
    "notes": "-",
    "registerDate": "-"
  },
  {
    "name": "역삼현대블루핸즈(현대)",
    "grade": "2급",
    "priority": "",
    "HCS": "N",
    "phone": "025549226",
    "address": "서울특별시 강남구  역삼로 238",
    "lat": "37.4972043",
    "lng": "127.0426130",
    "monthlyCapacity": "ㅇㅇ대",
    "currentIncoming": "ㅇㅇ대",
    "possibleIncoming": "ㅇㅇ대",
    "repairGeneral": "ⅹ",
    "repairAccident": "○",
    "pointHyundai": "-",
    "pointKia": "-",
    "notes": "(입고중지)",
    "registerDate": "-"
  },
  {
    "name": "우리자동차공업사",
    "grade": "2급",
    "priority": "",
    "HCS": "N",
    "phone": "0226780184",
    "address": "서울특별시 영등포구 선유로 85-3 (양평동1가)",
    "lat": "37.5215115",
    "lng": "126.8892287",
    "monthlyCapacity": "ㅇㅇ대",
    "currentIncoming": "ㅇㅇ대",
    "possibleIncoming": "ㅇㅇ대",
    "repairGeneral": "ⅹ",
    "repairAccident": "○",
    "pointHyundai": "-",
    "pointKia": "-",
    "notes": "-",
    "registerDate": "-"
  },
  {
    "name": "원모터스",
    "grade": "2급",
    "priority": "",
    "HCS": "Y",
    "phone": "010-8564-6353 (엄원일)",
    "address": "대구광역시 서구 국채보상로14길 29-15 (중리동)",
    "lat": "35.8661931",
    "lng": "128.5403669",
    "monthlyCapacity": "ㅇㅇ대",
    "currentIncoming": "ㅇㅇ대",
    "possibleIncoming": "ㅇㅇ대",
    "repairGeneral": "ⅹ",
    "repairAccident": "○",
    "pointHyundai": "-",
    "pointKia": "-",
    "notes": "-",
    "registerDate": "-"
  },
  {
    "name": "제일정비공장(영주)",
    "grade": "2급",
    "priority": "",
    "HCS": "Y",
    "phone": "010-9005-1386 (권영수)",
    "address": "경상북도 영주시 의상로 136 (상망동)",
    "lat": "36.8483368",
    "lng": "128.6393793",
    "monthlyCapacity": "ㅇㅇ대",
    "currentIncoming": "ㅇㅇ대",
    "possibleIncoming": "ㅇㅇ대",
    "repairGeneral": "ⅹ",
    "repairAccident": "○",
    "pointHyundai": "-",
    "pointKia": "-",
    "notes": "-",
    "registerDate": "-"
  },
  {
    "name": "좋은정비",
    "grade": "2급",
    "priority": "",
    "HCS": "Y",
    "phone": "010-6480-8872 (이순이)",
    "address": "경상남도 통영시 춘원2로 49-45 (광도면)",
    "lat": "34.9560945",
    "lng": "128.4120853",
    "monthlyCapacity": "ㅇㅇ대",
    "currentIncoming": "ㅇㅇ대",
    "possibleIncoming": "ㅇㅇ대",
    "repairGeneral": "ⅹ",
    "repairAccident": "○",
    "pointHyundai": "-",
    "pointKia": "-",
    "notes": "-",
    "registerDate": "-"
  },
  {
    "name": "주식회사 넘버원팩토리",
    "grade": "2급",
    "priority": "",
    "HCS": "N",
    "phone": "024658881",
    "address": "서울특별시 성동구 뚝섬로15길 23-20 (성수동2가)",
    "lat": "37.5393021",
    "lng": "127.0609424",
    "monthlyCapacity": "ㅇㅇ대",
    "currentIncoming": "ㅇㅇ대",
    "possibleIncoming": "ㅇㅇ대",
    "repairGeneral": "ⅹ",
    "repairAccident": "○",
    "pointHyundai": "-",
    "pointKia": "-",
    "notes": "-",
    "registerDate": "-"
  },
  {
    "name": "주식회사 카민랩",
    "grade": "2급",
    "priority": "",
    "HCS": "Y",
    "phone": "010-2733-8484 (이천호)",
    "address": "경기 여주시 농산로 101 ()",
    "lat": "37.2509149",
    "lng": "127.6366669",
    "monthlyCapacity": "ㅇㅇ대",
    "currentIncoming": "ㅇㅇ대",
    "possibleIncoming": "ㅇㅇ대",
    "repairGeneral": "○",
    "repairAccident": "○",
    "pointHyundai": "-",
    "pointKia": "-",
    "notes": "-",
    "registerDate": "-"
  },
  {
    "name": "케이현대자동차공업사 주식회사",
    "grade": "2급",
    "priority": "",
    "HCS": "Y",
    "phone": "010-2984-4844 (위용훈)",
    "address": "경기도 남양주시 재재기로 40 (화도읍)",
    "lat": "37.6304532",
    "lng": "127.3019527",
    "monthlyCapacity": "ㅇㅇ대",
    "currentIncoming": "ㅇㅇ대",
    "possibleIncoming": "ㅇㅇ대",
    "repairGeneral": "○",
    "repairAccident": "○",
    "pointHyundai": "-",
    "pointKia": "-",
    "notes": "(상용겸용)",
    "registerDate": "-"
  },
  {
    "name": "코리아모터스(천안)",
    "grade": "2급",
    "priority": "",
    "HCS": "N",
    "phone": "0415524594",
    "address": "충청남도 천안시 서북구 천안대로 1078-13 (두정동)",
    "lat": "36.8382169",
    "lng": "127.1530544",
    "monthlyCapacity": "ㅇㅇ대",
    "currentIncoming": "ㅇㅇ대",
    "possibleIncoming": "ㅇㅇ대",
    "repairGeneral": "ⅹ",
    "repairAccident": "○",
    "pointHyundai": "-",
    "pointKia": "-",
    "notes": "-",
    "registerDate": "-"
  },
  {
    "name": "태강자동차공업사",
    "grade": "2급",
    "priority": "",
    "HCS": "Y",
    "phone": "010-8880-8696 (정구하)",
    "address": "경기도 용인시 처인구 중부대로 1585-1 (마평동, 태강자동차공업사)",
    "lat": "37.2335701",
    "lng": "127.2207175",
    "monthlyCapacity": "ㅇㅇ대",
    "currentIncoming": "ㅇㅇ대",
    "possibleIncoming": "ㅇㅇ대",
    "repairGeneral": "ⅹ",
    "repairAccident": "○",
    "pointHyundai": "-",
    "pointKia": "-",
    "notes": "(상용겸용)",
    "registerDate": "-"
  },
  {
    "name": "한국폴리텍자동차서비스",
    "grade": "2급",
    "priority": "",
    "HCS": "N",
    "phone": "0325265862",
    "address": "인천광역시 부평구 안남로 439 (청천동)",
    "lat": "37.5221927",
    "lng": "126.7101292",
    "monthlyCapacity": "ㅇㅇ대",
    "currentIncoming": "ㅇㅇ대",
    "possibleIncoming": "ㅇㅇ대",
    "repairGeneral": "ⅹ",
    "repairAccident": "○",
    "pointHyundai": "-",
    "pointKia": "-",
    "notes": "-",
    "registerDate": "-"
  },
  {
    "name": "한빛자동차공업사",
    "grade": "2급",
    "priority": "",
    "HCS": "N",
    "phone": "0634625321",
    "address": "전라북도 군산시 부원로 18 (나운동, 한빛자동차공업사)",
    "lat": "35.9611399",
    "lng": "126.6897655",
    "monthlyCapacity": "ㅇㅇ대",
    "currentIncoming": "ㅇㅇ대",
    "possibleIncoming": "ㅇㅇ대",
    "repairGeneral": "ⅹ",
    "repairAccident": "○",
    "pointHyundai": "-",
    "pointKia": "-",
    "notes": "-",
    "registerDate": "-"
  },
  {
    "name": "한진자동차정비",
    "grade": "2급",
    "priority": 1,
    "HCS": "Y",
    "phone": "010-4063-0474 (박현준)",
    "address": "경기도 의왕시 고산로 28 (고천동, 한진화학(주))",
    "lat": "37.3523856",
    "lng": "126.9680223",
    "monthlyCapacity": "ㅇㅇ대",
    "currentIncoming": "ㅇㅇ대",
    "possibleIncoming": "ㅇㅇ대",
    "repairGeneral": "ⅹ",
    "repairAccident": "○",
    "pointHyundai": "-",
    "pointKia": "-",
    "notes": "-",
    "registerDate": "-"
  },
  {
    "name": "해강자동차정비공업사",
    "grade": "2급",
    "priority": "",
    "HCS": "N",
    "phone": "0325534972",
    "address": "인천광역시 계양구 계양대로16번길 93 (작전동)",
    "lat": "37.5244724",
    "lng": "126.7322393",
    "monthlyCapacity": "ㅇㅇ대",
    "currentIncoming": "ㅇㅇ대",
    "possibleIncoming": "ㅇㅇ대",
    "repairGeneral": "ⅹ",
    "repairAccident": "○",
    "pointHyundai": "-",
    "pointKia": "-",
    "notes": "-",
    "registerDate": "-"
  },
  {
    "name": "형제자동차정비",
    "grade": "2급",
    "priority": 1,
    "HCS": "Y",
    "phone": "010-5338-7144 (박만기)",
    "address": "경기도 안산시 상록구 안산천서로6길 6 (월피동, 형제자동차정비)",
    "lat": "37.3380852",
    "lng": "126.8499001",
    "monthlyCapacity": "ㅇㅇ대",
    "currentIncoming": "ㅇㅇ대",
    "possibleIncoming": "ㅇㅇ대",
    "repairGeneral": "ⅹ",
    "repairAccident": "○",
    "pointHyundai": "-",
    "pointKia": "-",
    "notes": "-",
    "registerDate": "-"
  },
  {
    "name": "효성카독크",
    "grade": "2급",
    "priority": "",
    "HCS": "Y",
    "phone": "010-5312-0554 (김미옥)",
    "address": "강원도 춘천시 춘천로56번길 19-1 (효자동)",
    "lat": "37.8686260",
    "lng": "127.7260522",
    "monthlyCapacity": "ㅇㅇ대",
    "currentIncoming": "ㅇㅇ대",
    "possibleIncoming": "ㅇㅇ대",
    "repairGeneral": "ⅹ",
    "repairAccident": "○",
    "pointHyundai": "-",
    "pointKia": "-",
    "notes": "-",
    "registerDate": "-"
  },
  {
    "name": "(유)전북혁신도시현대상용서비스(현대)",
    "grade": "1급",
    "priority": "",
    "HCS": "N",
    "phone": "0632250354",
    "address": "전라북도 완주군 이서남로 361-22 (이서면)",
    "lat": "35.8239314",
    "lng": "127.0329617",
    "monthlyCapacity": "ㅇㅇ대",
    "currentIncoming": "ㅇㅇ대",
    "possibleIncoming": "ㅇㅇ대",
    "repairGeneral": "ⅹ",
    "repairAccident": "○",
    "pointHyundai": "○",
    "pointKia": "-",
    "notes": "(상용전용)",
    "registerDate": "-"
  },
  {
    "name": "(주)동방정비",
    "grade": "1급",
    "priority": "",
    "HCS": "N",
    "phone": "0513156673",
    "address": "부산광역시 사상구 낙동대로1016번길 29 (감전동, 동방1급정비1공장)",
    "lat": "35.1508725",
    "lng": "128.9741209",
    "monthlyCapacity": "ㅇㅇ대",
    "currentIncoming": "ㅇㅇ대",
    "possibleIncoming": "ㅇㅇ대",
    "repairGeneral": "ⅹ",
    "repairAccident": "○",
    "pointHyundai": "-",
    "pointKia": "-",
    "notes": "(상용전용)(쿠팡타이어주문업체)",
    "registerDate": "-"
  },
  {
    "name": "(주)영남중공업(블루)",
    "grade": "1급",
    "priority": "",
    "HCS": "N",
    "phone": "028559966",
    "address": "서울특별시 금천구 시흥대로153길 26 (독산동)",
    "lat": "37.4778257",
    "lng": "126.8969192",
    "monthlyCapacity": "ㅇㅇ대",
    "currentIncoming": "ㅇㅇ대",
    "possibleIncoming": "ㅇㅇ대",
    "repairGeneral": "ⅹ",
    "repairAccident": "○",
    "pointHyundai": "-",
    "pointKia": "-",
    "notes": "(대형전용 / 서울시설공단 전용)",
    "registerDate": "-"
  },
  {
    "name": "(주)일급그린정비써비스",
    "grade": "1급",
    "priority": "",
    "HCS": "N",
    "phone": "0517241470",
    "address": "부산 기장군 기장읍 대청로72번길 28 (그린정비서비스)",
    "lat": "35.2342452",
    "lng": "129.2157488",
    "monthlyCapacity": "ㅇㅇ대",
    "currentIncoming": "ㅇㅇ대",
    "possibleIncoming": "ㅇㅇ대",
    "repairGeneral": "ⅹ",
    "repairAccident": "○",
    "pointHyundai": "-",
    "pointKia": "-",
    "notes": "(상용전용)(쿠팡타이어주문업체)",
    "registerDate": "-"
  },
  {
    "name": "(주)현대기아남구정비서비스(현대)",
    "grade": "1급",
    "priority": "",
    "HCS": "N",
    "phone": "0516242121",
    "address": "부산광역시 남구 신선로 340 (용당동, (주)현대기아남구정비서비스)",
    "lat": "35.1171926",
    "lng": "129.0957246",
    "monthlyCapacity": "ㅇㅇ대",
    "currentIncoming": "ㅇㅇ대",
    "possibleIncoming": "ㅇㅇ대",
    "repairGeneral": "ⅹ",
    "repairAccident": "○",
    "pointHyundai": "○",
    "pointKia": "-",
    "notes": "(상용전용)",
    "registerDate": "-"
  },
  {
    "name": "(주)현대모터스(현대)",
    "grade": "1급",
    "priority": "",
    "HCS": "N",
    "phone": "07088900703",
    "address": "서울특별시 서초구 형촌2길 26 (우면동)",
    "lat": "37.4649199",
    "lng": "127.0215884",
    "monthlyCapacity": "ㅇㅇ대",
    "currentIncoming": "ㅇㅇ대",
    "possibleIncoming": "ㅇㅇ대",
    "repairGeneral": "ⅹ",
    "repairAccident": "○",
    "pointHyundai": "○",
    "pointKia": "-",
    "notes": "(시설관리공단 사고전용)",
    "registerDate": "-"
  },
  {
    "name": "(주)현대자동차충청써비스(현대)",
    "grade": "1급",
    "priority": "",
    "HCS": "N",
    "phone": "0415460992",
    "address": "충청남도 아산시 곡교천로125번길 35 (실옥동)",
    "lat": "36.7953284",
    "lng": "126.9897676",
    "monthlyCapacity": "ㅇㅇ대",
    "currentIncoming": "ㅇㅇ대",
    "possibleIncoming": "ㅇㅇ대",
    "repairGeneral": "ⅹ",
    "repairAccident": "○",
    "pointHyundai": "○",
    "pointKia": "-",
    "notes": "(상용전용)",
    "registerDate": "-"
  },
  {
    "name": "1급자동차공업사 메카니카",
    "grade": "1급",
    "priority": "",
    "HCS": "N",
    "phone": "0315418797",
    "address": "경기도 포천시 송선로 140 (설운동)",
    "lat": "37.8450607",
    "lng": "127.1493736",
    "monthlyCapacity": "ㅇㅇ대",
    "currentIncoming": "ㅇㅇ대",
    "possibleIncoming": "ㅇㅇ대",
    "repairGeneral": "ⅹ",
    "repairAccident": "○",
    "pointHyundai": "-",
    "pointKia": "-",
    "notes": "-",
    "registerDate": "-"
  },
  {
    "name": "가람모터스(대구)",
    "grade": "1급",
    "priority": "",
    "HCS": "N",
    "phone": "01020549190",
    "address": "대구 서구 염색공단로5길 21 ",
    "lat": "35.8866759",
    "lng": "128.5551809",
    "monthlyCapacity": "ㅇㅇ대",
    "currentIncoming": "ㅇㅇ대",
    "possibleIncoming": "ㅇㅇ대",
    "repairGeneral": "○",
    "repairAccident": "ⅹ",
    "pointHyundai": "-",
    "pointKia": "-",
    "notes": "-",
    "registerDate": "-"
  },
  {
    "name": "금호종합자동차정비",
    "grade": "1급",
    "priority": "",
    "HCS": "N",
    "phone": "0538568300",
    "address": "경상북도 경산시 하양로 481 (와촌면)",
    "lat": "35.9269289",
    "lng": "128.8557938",
    "monthlyCapacity": "ㅇㅇ대",
    "currentIncoming": "ㅇㅇ대",
    "possibleIncoming": "ㅇㅇ대",
    "repairGeneral": "ⅹ",
    "repairAccident": "○",
    "pointHyundai": "-",
    "pointKia": "-",
    "notes": "(상용전용)",
    "registerDate": "-"
  },
  {
    "name": "남원주서비스 기아오토큐",
    "grade": "1급",
    "priority": "",
    "HCS": "N",
    "phone": "01054605767",
    "address": "강원특별자치도 원주시 건너말길 7 (판부면)",
    "lat": "37.3167921",
    "lng": "127.9381989",
    "monthlyCapacity": "ㅇㅇ대",
    "currentIncoming": "ㅇㅇ대",
    "possibleIncoming": "ㅇㅇ대",
    "repairGeneral": "ⅹ",
    "repairAccident": "○",
    "pointHyundai": "-",
    "pointKia": "-",
    "notes": "(AJ네트웍스 상용전용)",
    "registerDate": "-"
  },
  {
    "name": "내트럭자동차공업사",
    "grade": "1급",
    "priority": "",
    "HCS": "N",
    "phone": "0616847777",
    "address": "전라남도 여수시 여수산단로 140 (주삼동, 화물차휴게소)",
    "lat": "34.7977042",
    "lng": "127.6624527",
    "monthlyCapacity": "ㅇㅇ대",
    "currentIncoming": "ㅇㅇ대",
    "possibleIncoming": "ㅇㅇ대",
    "repairGeneral": "ⅹ",
    "repairAccident": "○",
    "pointHyundai": "-",
    "pointKia": "-",
    "notes": "(상용겸용)",
    "registerDate": "-"
  },
  {
    "name": "대우상용부산서비스",
    "grade": "1급",
    "priority": "",
    "HCS": "N",
    "phone": "0519412212",
    "address": "부산 강서구 범방1로 6 ",
    "lat": "35.1481787",
    "lng": "128.8783549",
    "monthlyCapacity": "ㅇㅇ대",
    "currentIncoming": "ㅇㅇ대",
    "possibleIncoming": "ㅇㅇ대",
    "repairGeneral": "ⅹ",
    "repairAccident": "○",
    "pointHyundai": "-",
    "pointKia": "-",
    "notes": "(쿠팡)",
    "registerDate": "-"
  },
  {
    "name": "대지남사서비스(주)",
    "grade": "1급",
    "priority": "",
    "HCS": "N",
    "phone": "15771335",
    "address": "경기도 용인시 처인구 천덕산로421번길 27 (남사읍)",
    "lat": "37.0949931",
    "lng": "127.1463497",
    "monthlyCapacity": "ㅇㅇ대",
    "currentIncoming": "ㅇㅇ대",
    "possibleIncoming": "ㅇㅇ대",
    "repairGeneral": "ⅹ",
    "repairAccident": "○",
    "pointHyundai": "-",
    "pointKia": "-",
    "notes": "(상용전용)(스테리)",
    "registerDate": "-"
  },
  {
    "name": "도원자동차공업(주)",
    "grade": "1급",
    "priority": "",
    "HCS": "N",
    "phone": "0313382177",
    "address": "경기도 용인시 처인구 남평로42번길 9-6 (양지면, 도원자동차공업사)",
    "lat": "37.2293312",
    "lng": "127.2882152",
    "monthlyCapacity": "ㅇㅇ대",
    "currentIncoming": "ㅇㅇ대",
    "possibleIncoming": "ㅇㅇ대",
    "repairGeneral": "ⅹ",
    "repairAccident": "입고중지지",
    "pointHyundai": "-",
    "pointKia": "-",
    "notes": "(상용전용)",
    "registerDate": "-"
  },
  {
    "name": "도진모터스",
    "grade": "1급",
    "priority": "",
    "HCS": "N",
    "phone": "0314270414",
    "address": "경기 군포시 공단로 100 ",
    "lat": "37.3541336",
    "lng": "126.9499468",
    "monthlyCapacity": "ㅇㅇ대",
    "currentIncoming": "ㅇㅇ대",
    "possibleIncoming": "ㅇㅇ대",
    "repairGeneral": "ⅹ",
    "repairAccident": "○",
    "pointHyundai": "-",
    "pointKia": "-",
    "notes": "-",
    "registerDate": "-"
  },
  {
    "name": "만장공업사(현대)",
    "grade": "1급",
    "priority": "",
    "HCS": "N",
    "phone": "0522380002",
    "address": "울산광역시 울주군 덕망로 290 (온양읍)",
    "lat": "35.4547438",
    "lng": "129.2923043",
    "monthlyCapacity": "ㅇㅇ대",
    "currentIncoming": "ㅇㅇ대",
    "possibleIncoming": "ㅇㅇ대",
    "repairGeneral": "ⅹ",
    "repairAccident": "○",
    "pointHyundai": "○",
    "pointKia": "-",
    "notes": "(상용전용)",
    "registerDate": "-"
  },
  {
    "name": "밀리언모터스",
    "grade": "1급",
    "priority": "",
    "HCS": "N",
    "phone": "0415318832",
    "address": "충남 아산시 배방읍 갈산교로 32 (밀리언모터스)",
    "lat": "36.7803056",
    "lng": "127.0645491",
    "monthlyCapacity": "ㅇㅇ대",
    "currentIncoming": "ㅇㅇ대",
    "possibleIncoming": "ㅇㅇ대",
    "repairGeneral": "ⅹ",
    "repairAccident": "○",
    "pointHyundai": "-",
    "pointKia": "-",
    "notes": "(3.5t이상 상용)",
    "registerDate": "-"
  },
  {
    "name": "블루핸즈과천대형점(현대)",
    "grade": "1급",
    "priority": "",
    "HCS": "N",
    "phone": "025038465",
    "address": "경기도 과천시 추사로 119 (주암동)",
    "lat": "37.4563181",
    "lng": "127.0292491",
    "monthlyCapacity": "ㅇㅇ대",
    "currentIncoming": "ㅇㅇ대",
    "possibleIncoming": "ㅇㅇ대",
    "repairGeneral": "ⅹ",
    "repairAccident": "○",
    "pointHyundai": "○",
    "pointKia": "-",
    "notes": "(상용전용)",
    "registerDate": "-"
  },
  {
    "name": "비에스(BS)1급 자동차공업사",
    "grade": "1급",
    "priority": "",
    "HCS": "N",
    "phone": "0314969117",
    "address": "경기도 안산시 단원구 번영1로 7 (성곡동, 삼호 안산)",
    "lat": "37.3223258",
    "lng": "126.7324778",
    "monthlyCapacity": "ㅇㅇ대",
    "currentIncoming": "ㅇㅇ대",
    "possibleIncoming": "ㅇㅇ대",
    "repairGeneral": "ⅹ",
    "repairAccident": "○",
    "pointHyundai": "-",
    "pointKia": "-",
    "notes": "(쿠팡)",
    "registerDate": "-"
  },
  {
    "name": "삼공사(현대)",
    "grade": "1급",
    "priority": "",
    "HCS": "N",
    "phone": "0327773304",
    "address": "인천광역시 동구 중봉대로 73 (송현동)",
    "lat": "37.4866892",
    "lng": "126.6443415",
    "monthlyCapacity": "ㅇㅇ대",
    "currentIncoming": "ㅇㅇ대",
    "possibleIncoming": "ㅇㅇ대",
    "repairGeneral": "ⅹ",
    "repairAccident": "○",
    "pointHyundai": "○",
    "pointKia": "-",
    "notes": "(상용전용)",
    "registerDate": "-"
  },
  {
    "name": "서제주서비스 기아오토큐",
    "grade": "1급",
    "priority": "",
    "HCS": "N",
    "phone": "0647497888",
    "address": "제주특별자치도 제주시 오광로 193 (노형동)",
    "lat": "33.4804708",
    "lng": "126.4654342",
    "monthlyCapacity": "ㅇㅇ대",
    "currentIncoming": "ㅇㅇ대",
    "possibleIncoming": "ㅇㅇ대",
    "repairGeneral": "ⅹ",
    "repairAccident": "○",
    "pointHyundai": "-",
    "pointKia": "-",
    "notes": "(쿠팡)(전기차사고)",
    "registerDate": "-"
  },
  {
    "name": "승창공업사",
    "grade": "1급",
    "priority": "",
    "HCS": "N",
    "phone": "0529160505",
    "address": "울산광역시 울주군 화창6길 8 (청량읍)",
    "lat": "35.4899969",
    "lng": "129.3086009",
    "monthlyCapacity": "ㅇㅇ대",
    "currentIncoming": "ㅇㅇ대",
    "possibleIncoming": "ㅇㅇ대",
    "repairGeneral": "ⅹ",
    "repairAccident": "○",
    "pointHyundai": "-",
    "pointKia": "-",
    "notes": "(쿠팡)",
    "registerDate": "-"
  },
  {
    "name": "신갑을종합정비",
    "grade": "1급",
    "priority": "",
    "HCS": "N",
    "phone": "0538537562",
    "address": "경상북도 경산시 공단10로 332 (진량읍)",
    "lat": "35.8850794",
    "lng": "128.8366813",
    "monthlyCapacity": "ㅇㅇ대",
    "currentIncoming": "ㅇㅇ대",
    "possibleIncoming": "ㅇㅇ대",
    "repairGeneral": "ⅹ",
    "repairAccident": "○",
    "pointHyundai": "-",
    "pointKia": "-",
    "notes": "(상용전용)",
    "registerDate": "-"
  },
  {
    "name": "신례원자동차정비공장",
    "grade": "1급",
    "priority": "",
    "HCS": "N",
    "phone": "0413341883",
    "address": "충남 예산군 예산읍 충서로 1298 ",
    "lat": "36.7235142",
    "lng": "126.8323492",
    "monthlyCapacity": "ㅇㅇ대",
    "currentIncoming": "ㅇㅇ대",
    "possibleIncoming": "ㅇㅇ대",
    "repairGeneral": "ⅹ",
    "repairAccident": "○",
    "pointHyundai": "-",
    "pointKia": "-",
    "notes": "(AJ네트웍스 상용전용)",
    "registerDate": "-"
  },
  {
    "name": "신흥1급정비공업사",
    "grade": "1급",
    "priority": "",
    "HCS": "N",
    "phone": "0314315577",
    "address": "경기도 시흥시 공단1대로195번길 10 (정왕동)",
    "lat": "37.3395339",
    "lng": "126.7249166",
    "monthlyCapacity": "ㅇㅇ대",
    "currentIncoming": "ㅇㅇ대",
    "possibleIncoming": "ㅇㅇ대",
    "repairGeneral": "ⅹ",
    "repairAccident": "○",
    "pointHyundai": "-",
    "pointKia": "-",
    "notes": "(상용전용)",
    "registerDate": "-"
  },
  {
    "name": "엘테크자동차공업 주식회사",
    "grade": "1급",
    "priority": "",
    "HCS": "N",
    "phone": "0318558994",
    "address": "경기도 양주시 중앙로 306 (백석읍)",
    "lat": "37.7993517",
    "lng": "126.9805588",
    "monthlyCapacity": "ㅇㅇ대",
    "currentIncoming": "ㅇㅇ대",
    "possibleIncoming": "ㅇㅇ대",
    "repairGeneral": "ⅹ",
    "repairAccident": "○",
    "pointHyundai": "-",
    "pointKia": "-",
    "notes": "(상용전용)",
    "registerDate": "-"
  },
  {
    "name": "용인현대자동차공업사(현대)",
    "grade": "1급",
    "priority": "",
    "HCS": "N",
    "phone": "0313346232",
    "address": "경기도 용인시 처인구 중부대로 2038-8 (양지면, 용인현대자동차공업)",
    "lat": "37.2260557",
    "lng": "127.2702939",
    "monthlyCapacity": "ㅇㅇ대",
    "currentIncoming": "ㅇㅇ대",
    "possibleIncoming": "ㅇㅇ대",
    "repairGeneral": "ⅹ",
    "repairAccident": "○",
    "pointHyundai": "○",
    "pointKia": "-",
    "notes": "(상용전용)",
    "registerDate": "-"
  },
  {
    "name": "우성자동차정비공장",
    "grade": "1급",
    "priority": "",
    "HCS": "N",
    "phone": "0544631377",
    "address": "경상북도 구미시 금오대로 377 (오태동)",
    "lat": "36.0781476",
    "lng": "128.3518481",
    "monthlyCapacity": "ㅇㅇ대",
    "currentIncoming": "ㅇㅇ대",
    "possibleIncoming": "ㅇㅇ대",
    "repairGeneral": "ⅹ",
    "repairAccident": "○",
    "pointHyundai": "-",
    "pointKia": "-",
    "notes": "(쿠팡)",
    "registerDate": "-"
  },
  {
    "name": "원일현대서비스(현대)",
    "grade": "1급",
    "priority": "",
    "HCS": "N",
    "phone": "0319055100",
    "address": "경기도 고양시 일산동구 장진천길 14-7 (설문동)",
    "lat": "37.7090078",
    "lng": "126.8120825",
    "monthlyCapacity": "ㅇㅇ대",
    "currentIncoming": "ㅇㅇ대",
    "possibleIncoming": "ㅇㅇ대",
    "repairGeneral": "ⅹ",
    "repairAccident": "○",
    "pointHyundai": "○",
    "pointKia": "-",
    "notes": "(상용전용)",
    "registerDate": "-"
  },
  {
    "name": "월드자동차정비공업사",
    "grade": "1급",
    "priority": "",
    "HCS": "N",
    "phone": "0312043318",
    "address": "경기도 수원시 영통구 매영로 161 (원천동)",
    "lat": "37.2657139",
    "lng": "127.0601640",
    "monthlyCapacity": "ㅇㅇ대",
    "currentIncoming": "ㅇㅇ대",
    "possibleIncoming": "ㅇㅇ대",
    "repairGeneral": "ⅹ",
    "repairAccident": "○",
    "pointHyundai": "-",
    "pointKia": "-",
    "notes": "(상용전용)(페덱스)",
    "registerDate": "-"
  },
  {
    "name": "유진종합자동차정비공장",
    "grade": "1급",
    "priority": "",
    "HCS": "N",
    "phone": "0553329142",
    "address": "경상남도 김해시 나전로 189 (생림면)",
    "lat": "35.3009629",
    "lng": "128.8761508",
    "monthlyCapacity": "ㅇㅇ대",
    "currentIncoming": "ㅇㅇ대",
    "possibleIncoming": "ㅇㅇ대",
    "repairGeneral": "ⅹ",
    "repairAccident": "○",
    "pointHyundai": "-",
    "pointKia": "-",
    "notes": "(상용전용)",
    "registerDate": "-"
  },
  {
    "name": "은성건설기계정비공업사(현대)",
    "grade": "1급",
    "priority": "",
    "HCS": "N",
    "phone": "0535855900",
    "address": "대구광역시 달서구 성서공단로 72-19 (대천동)",
    "lat": "35.8328837",
    "lng": "128.4906817",
    "monthlyCapacity": "ㅇㅇ대",
    "currentIncoming": "ㅇㅇ대",
    "possibleIncoming": "ㅇㅇ대",
    "repairGeneral": "ⅹ",
    "repairAccident": "○",
    "pointHyundai": "○",
    "pointKia": "-",
    "notes": "(상용전용)",
    "registerDate": "-"
  },
  {
    "name": "장안마이스터모터스",
    "grade": "1급",
    "priority": "",
    "HCS": "N",
    "phone": "0517287722",
    "address": "부산광역시 기장군 신소재산단로 6 (장안읍)",
    "lat": "35.3392794",
    "lng": "129.2650530",
    "monthlyCapacity": "ㅇㅇ대",
    "currentIncoming": "ㅇㅇ대",
    "possibleIncoming": "ㅇㅇ대",
    "repairGeneral": "ⅹ",
    "repairAccident": "○",
    "pointHyundai": "-",
    "pointKia": "-",
    "notes": "(상용전용)",
    "registerDate": "-"
  },
  {
    "name": "전국정비(현대)",
    "grade": "1급",
    "priority": "",
    "HCS": "N",
    "phone": "0553421677",
    "address": "경상남도 김해시 김해대로 1131-2 (한림면)",
    "lat": "35.2964713",
    "lng": "128.8067421",
    "monthlyCapacity": "ㅇㅇ대",
    "currentIncoming": "ㅇㅇ대",
    "possibleIncoming": "ㅇㅇ대",
    "repairGeneral": "ⅹ",
    "repairAccident": "○",
    "pointHyundai": "○",
    "pointKia": "-",
    "notes": "(상용전용)",
    "registerDate": "-"
  },
  {
    "name": "정일자동차공업사",
    "grade": "1급",
    "priority": "",
    "HCS": "N",
    "phone": "0612774700",
    "address": "전라남도 목포시 고하대로719번길 5 (연산동)",
    "lat": "34.8109179",
    "lng": "126.3742991",
    "monthlyCapacity": "ㅇㅇ대",
    "currentIncoming": "ㅇㅇ대",
    "possibleIncoming": "ㅇㅇ대",
    "repairGeneral": "ⅹ",
    "repairAccident": "○",
    "pointHyundai": "-",
    "pointKia": "-",
    "notes": "(상용전용)",
    "registerDate": "-"
  },
  {
    "name": "주식회사 성은종합정비",
    "grade": "1급",
    "priority": "",
    "HCS": "N",
    "phone": "0544640061",
    "address": "경상북도 구미시 비산로 71-2 (비산동)",
    "lat": "36.1199404",
    "lng": "128.3793484",
    "monthlyCapacity": "ㅇㅇ대",
    "currentIncoming": "ㅇㅇ대",
    "possibleIncoming": "ㅇㅇ대",
    "repairGeneral": "ⅹ",
    "repairAccident": "○",
    "pointHyundai": "-",
    "pointKia": "-",
    "notes": "(상용전용)",
    "registerDate": "-"
  },
  {
    "name": "주식회사 스마일모터스정비",
    "grade": "1급",
    "priority": "",
    "HCS": "N",
    "phone": "0535558582",
    "address": "대구광역시 서구 북비산로 105-6 (이현동)",
    "lat": "35.8792526",
    "lng": "128.5449515",
    "monthlyCapacity": "ㅇㅇ대",
    "currentIncoming": "ㅇㅇ대",
    "possibleIncoming": "ㅇㅇ대",
    "repairGeneral": "ⅹ",
    "repairAccident": "○",
    "pointHyundai": "-",
    "pointKia": "-",
    "notes": "(쿠팡)",
    "registerDate": "-"
  },
  {
    "name": "주식회사 신안자동차",
    "grade": "1급",
    "priority": "",
    "HCS": "N",
    "phone": "0647679100",
    "address": "제주특별자치도 서귀포시 토평공단로115번길 12 (토평동)",
    "lat": "33.2918000",
    "lng": "126.5824912",
    "monthlyCapacity": "ㅇㅇ대",
    "currentIncoming": "ㅇㅇ대",
    "possibleIncoming": "ㅇㅇ대",
    "repairGeneral": "ⅹ",
    "repairAccident": "○",
    "pointHyundai": "-",
    "pointKia": "-",
    "notes": "(쿠팡)(전기차사고)",
    "registerDate": "-"
  },
  {
    "name": "주식회사 이즈모터스(권선점)",
    "grade": "1급",
    "priority": "",
    "HCS": "Y",
    "phone": "010-9191-4972 (종경민)",
    "address": "경기 수원시 권선구 오목천로 56 ",
    "lat": "37.2396191",
    "lng": "126.9687613",
    "monthlyCapacity": "ㅇㅇ대",
    "currentIncoming": "ㅇㅇ대",
    "possibleIncoming": "ㅇㅇ대",
    "repairGeneral": "○",
    "repairAccident": "○",
    "pointHyundai": "-",
    "pointKia": "-",
    "notes": "-",
    "registerDate": "-"
  },
  {
    "name": "주식회사 이즈모터스(영통점)",
    "grade": "1급",
    "priority": 1,
    "HCS": "N",
    "phone": "0312246655",
    "address": "경기 수원시 영통구 영통로 295 (이즈모터스)",
    "lat": "37.2528162",
    "lng": "127.0608964",
    "monthlyCapacity": "ㅇㅇ대",
    "currentIncoming": "ㅇㅇ대",
    "possibleIncoming": "ㅇㅇ대",
    "repairGeneral": "○",
    "repairAccident": "○",
    "pointHyundai": "-",
    "pointKia": "-",
    "notes": "-",
    "registerDate": "-"
  },
  {
    "name": "주식회사 제일자동차공업사",
    "grade": "1급",
    "priority": "",
    "HCS": "N",
    "phone": "0328337000",
    "address": "인천광역시 미추홀구 아암대로253번길 31 (학익동)",
    "lat": "37.4410593",
    "lng": "126.6344336",
    "monthlyCapacity": "ㅇㅇ대",
    "currentIncoming": "ㅇㅇ대",
    "possibleIncoming": "ㅇㅇ대",
    "repairGeneral": "ⅹ",
    "repairAccident": "○",
    "pointHyundai": "-",
    "pointKia": "-",
    "notes": "(스테리,엔비텍)(상용겸용)",
    "registerDate": "-"
  },
  {
    "name": "주식회사 태영자동차",
    "grade": "1급",
    "priority": "",
    "HCS": "N",
    "phone": "0316112171",
    "address": "경기도 평택시 도일로 135-6 (도일동)",
    "lat": "37.0534436",
    "lng": "127.1095562",
    "monthlyCapacity": "ㅇㅇ대",
    "currentIncoming": "ㅇㅇ대",
    "possibleIncoming": "ㅇㅇ대",
    "repairGeneral": "ⅹ",
    "repairAccident": "○",
    "pointHyundai": "-",
    "pointKia": "-",
    "notes": "(스테리)",
    "registerDate": "-"
  },
  {
    "name": "주식회사서울모터스",
    "grade": "1급",
    "priority": "",
    "HCS": "N",
    "phone": "0426394646",
    "address": "대전광역시 대덕구 갑천도시고속도로 1079 (신대동)",
    "lat": "36.3914526",
    "lng": "127.4132397",
    "monthlyCapacity": "ㅇㅇ대",
    "currentIncoming": "ㅇㅇ대",
    "possibleIncoming": "ㅇㅇ대",
    "repairGeneral": "ⅹ",
    "repairAccident": "○",
    "pointHyundai": "-",
    "pointKia": "-",
    "notes": "(쿠팡)",
    "registerDate": "-"
  },
  {
    "name": "지원정비공업사",
    "grade": "1급",
    "priority": "",
    "HCS": "N",
    "phone": "0552381500",
    "address": "경상남도 창원시 의창구 무역로503번길 5-26 (팔용동, 현대, 기아자동차 지원정비)",
    "lat": "35.2238780",
    "lng": "128.6342342",
    "monthlyCapacity": "ㅇㅇ대",
    "currentIncoming": "ㅇㅇ대",
    "possibleIncoming": "ㅇㅇ대",
    "repairGeneral": "ⅹ",
    "repairAccident": "○",
    "pointHyundai": "-",
    "pointKia": "-",
    "notes": "(상용전용)",
    "registerDate": "-"
  },
  {
    "name": "청라서비스기아오토큐 주식회사(기아)",
    "grade": "1급",
    "priority": "",
    "HCS": "N",
    "phone": "0325814572",
    "address": "인천 서구 파랑로 224-4 ",
    "lat": "37.5179484",
    "lng": "126.6341044",
    "monthlyCapacity": "ㅇㅇ대",
    "currentIncoming": "ㅇㅇ대",
    "possibleIncoming": "ㅇㅇ대",
    "repairGeneral": "ⅹ",
    "repairAccident": "○",
    "pointHyundai": "-",
    "pointKia": "○",
    "notes": "(상용전용)",
    "registerDate": "-"
  },
  {
    "name": "충무카센타",
    "grade": "1급",
    "priority": "",
    "HCS": "N",
    "phone": "0415537731",
    "address": "충청남도 천안시 동남구 용수골길 50 (용곡동, 충무카센타)",
    "lat": "36.7826105",
    "lng": "127.1389730",
    "monthlyCapacity": "ㅇㅇ대",
    "currentIncoming": "ㅇㅇ대",
    "possibleIncoming": "ㅇㅇ대",
    "repairGeneral": "ⅹ",
    "repairAccident": "○",
    "pointHyundai": "-",
    "pointKia": "-",
    "notes": "(AJ네트웍스 상용전용)",
    "registerDate": "-"
  },
  {
    "name": "케이모터스(주)",
    "grade": "1급",
    "priority": "",
    "HCS": "N",
    "phone": "0314570050",
    "address": "경기도 의왕시 한밭들길 6 (고천동, 케이모터스)",
    "lat": "37.3520794",
    "lng": "126.9634208",
    "monthlyCapacity": "ㅇㅇ대",
    "currentIncoming": "ㅇㅇ대",
    "possibleIncoming": "ㅇㅇ대",
    "repairGeneral": "ⅹ",
    "repairAccident": "○",
    "pointHyundai": "-",
    "pointKia": "-",
    "notes": "(쿠팡)",
    "registerDate": "-"
  },
  {
    "name": "한양자동차공업사(현대)",
    "grade": "1급",
    "priority": "",
    "HCS": "N",
    "phone": "0315416600",
    "address": "경기도 포천시 호국로 483 (소흘읍)",
    "lat": "37.8163881",
    "lng": "127.1347981",
    "monthlyCapacity": "ㅇㅇ대",
    "currentIncoming": "ㅇㅇ대",
    "possibleIncoming": "ㅇㅇ대",
    "repairGeneral": "ⅹ",
    "repairAccident": "○",
    "pointHyundai": "○",
    "pointKia": "-",
    "notes": "(상용전용)",
    "registerDate": "-"
  },
  {
    "name": "현대종합정비공장(현대)",
    "grade": "1급",
    "priority": "",
    "HCS": "N",
    "phone": "0548585555",
    "address": "경상북도 안동시 공단로 42 (수상동)",
    "lat": "36.5500961",
    "lng": "128.7056763",
    "monthlyCapacity": "ㅇㅇ대",
    "currentIncoming": "ㅇㅇ대",
    "possibleIncoming": "ㅇㅇ대",
    "repairGeneral": "ⅹ",
    "repairAccident": "○",
    "pointHyundai": "○",
    "pointKia": "-",
    "notes": "(상용전용)",
    "registerDate": "-"
  },
  {
    "name": "형제자동차공업사",
    "grade": "1급",
    "priority": "",
    "HCS": "N",
    "phone": "0326722311",
    "address": "경기도 부천시 오정로 107 (삼정동, 형제공업사)",
    "lat": "37.5262371",
    "lng": "126.7718317",
    "monthlyCapacity": "ㅇㅇ대",
    "currentIncoming": "ㅇㅇ대",
    "possibleIncoming": "ㅇㅇ대",
    "repairGeneral": "ⅹ",
    "repairAccident": "○",
    "pointHyundai": "-",
    "pointKia": "-",
    "notes": "(상용전용)",
    "registerDate": "-"
  },
  {
    "name": "화성자동차정비검사소",
    "grade": "1급",
    "priority": "",
    "HCS": "N",
    "phone": "0313515105",
    "address": "경기도 화성시 서해로 961 (팔탄면, 팔탄 자동차정비공장)",
    "lat": "37.1475186",
    "lng": "126.8913082",
    "monthlyCapacity": "ㅇㅇ대",
    "currentIncoming": "ㅇㅇ대",
    "possibleIncoming": "ㅇㅇ대",
    "repairGeneral": "ⅹ",
    "repairAccident": "○",
    "pointHyundai": "-",
    "pointKia": "-",
    "notes": "(상용전용)",
    "registerDate": "-"
  },
  {
    "name": "동네사람들 자동차 정비공업사",
    "grade": "2급",
    "priority": "",
    "HCS": "N",
    "phone": "0415457124",
    "address": "충청남도 아산시 음봉로 189 (음봉면)",
    "lat": "36.8467787",
    "lng": "127.0324481",
    "monthlyCapacity": "ㅇㅇ대",
    "currentIncoming": "ㅇㅇ대",
    "possibleIncoming": "ㅇㅇ대",
    "repairGeneral": "ⅹ",
    "repairAccident": "○",
    "pointHyundai": "-",
    "pointKia": "-",
    "notes": "(쿠팡)",
    "registerDate": "-"
  },
  {
    "name": "선부자동차정비(주)",
    "grade": "2급",
    "priority": "",
    "HCS": "N",
    "phone": "0314110022",
    "address": "경기도 안산시 단원구 선이로4길 5 (선부동, 선부자동차정비(주))",
    "lat": "37.3434607",
    "lng": "126.8005072",
    "monthlyCapacity": "ㅇㅇ대",
    "currentIncoming": "ㅇㅇ대",
    "possibleIncoming": "ㅇㅇ대",
    "repairGeneral": "ⅹ",
    "repairAccident": "○",
    "pointHyundai": "-",
    "pointKia": "-",
    "notes": "(상용전용)(SK쉴더스)",
    "registerDate": "-"
  },
  {
    "name": "투투정비서비스",
    "grade": "2급",
    "priority": "",
    "HCS": "N",
    "phone": "028548686",
    "address": "서울특별시 영등포구 영등포로3길 24-1 (양평동2가)",
    "lat": "37.5255324",
    "lng": "126.8841236",
    "monthlyCapacity": "ㅇㅇ대",
    "currentIncoming": "ㅇㅇ대",
    "possibleIncoming": "ㅇㅇ대",
    "repairGeneral": "ⅹ",
    "repairAccident": "○",
    "pointHyundai": "-",
    "pointKia": "-",
    "notes": "(서울시설공단 전용)",
    "registerDate": "-"
  },
  {
    "name": "신포자동차정비",
    "grade": "1급",
    "priority": "",
    "HCS": "N",
    "phone": "01038638799",
    "address": "경상남도 창원시 마산합포구 수산1길 12 (신포동1가, 신포자동차정비공장)",
    "lat": "35.1981323",
    "lng": "128.5731226",
    "monthlyCapacity": "ㅇㅇ대",
    "currentIncoming": "ㅇㅇ대",
    "possibleIncoming": "ㅇㅇ대",
    "repairGeneral": "○",
    "repairAccident": "○",
    "pointHyundai": "-",
    "pointKia": "-",
    "notes": "-",
    "registerDate": "-"
  },
  {
    "name": "주식회사 오토엠플러스",
    "grade": "1급",
    "priority": "",
    "HCS": "N",
    "phone": "0416660009",
    "address": "충남 서산시 덕지천로 254 ",
    "lat": "36.7584624",
    "lng": "126.4714595",
    "monthlyCapacity": "ㅇㅇ대",
    "currentIncoming": "ㅇㅇ대",
    "possibleIncoming": "ㅇㅇ대",
    "repairGeneral": "ⅹ",
    "repairAccident": "○",
    "pointHyundai": "-",
    "pointKia": "-",
    "notes": "-",
    "registerDate": "-"
  },
  {
    "name": "팔마자동차정비공업사",
    "grade": "1급",
    "priority": "",
    "HCS": "N",
    "phone": "0617420077",
    "address": "전라남도 순천시 양율길 71 (야흥동, 팔마자동차종합정비타운)",
    "lat": "34.9119059",
    "lng": "127.4836439",
    "monthlyCapacity": "ㅇㅇ대",
    "currentIncoming": "ㅇㅇ대",
    "possibleIncoming": "ㅇㅇ대",
    "repairGeneral": "ⅹ",
    "repairAccident": "○",
    "pointHyundai": "-",
    "pointKia": "-",
    "notes": "-",
    "registerDate": "-"
  },
  {
    "name": "(주)한국오토",
    "grade": "3급",
    "priority": "",
    "HCS": "N",
    "phone": "0263266511",
    "address": "서울 영등포구 문래북로 37 ",
    "lat": "37.5212968",
    "lng": "126.8894075",
    "monthlyCapacity": "ㅇㅇ대",
    "currentIncoming": "ㅇㅇ대",
    "possibleIncoming": "ㅇㅇ대",
    "repairGeneral": "○",
    "repairAccident": "ⅹ",
    "pointHyundai": "-",
    "pointKia": "-",
    "notes": "(예약必)",
    "registerDate": "-"
  },
  {
    "name": "경동카센터",
    "grade": "3급",
    "priority": "",
    "HCS": "N",
    "phone": "024354928",
    "address": "서울 중랑구 용마산로117길 38 ",
    "lat": "37.6002070",
    "lng": "127.0982564",
    "monthlyCapacity": "ㅇㅇ대",
    "currentIncoming": "ㅇㅇ대",
    "possibleIncoming": "ㅇㅇ대",
    "repairGeneral": "○",
    "repairAccident": "ⅹ",
    "pointHyundai": "-",
    "pointKia": "-",
    "notes": "-",
    "registerDate": "-"
  },
  {
    "name": "관약자동차봉천서비스",
    "grade": "3급",
    "priority": "",
    "HCS": "N",
    "phone": "028759000",
    "address": "서울특별시 관악구 시흥대로 526 (신림동, 백두빌딩)",
    "lat": "37.4803409",
    "lng": "126.8999101",
    "monthlyCapacity": "ㅇㅇ대",
    "currentIncoming": "ㅇㅇ대",
    "possibleIncoming": "ㅇㅇ대",
    "repairGeneral": "○",
    "repairAccident": "ⅹ",
    "pointHyundai": "-",
    "pointKia": "-",
    "notes": "(예약必)",
    "registerDate": "-"
  },
  {
    "name": "구미아주오토",
    "grade": "3급",
    "priority": "",
    "HCS": "N",
    "phone": "0544632530",
    "address": "경상북도 구미시 비산로3길 8 (비산동)",
    "lat": "36.1202938",
    "lng": "128.3778374",
    "monthlyCapacity": "ㅇㅇ대",
    "currentIncoming": "ㅇㅇ대",
    "possibleIncoming": "ㅇㅇ대",
    "repairGeneral": "○",
    "repairAccident": "ⅹ",
    "pointHyundai": "-",
    "pointKia": "-",
    "notes": "-",
    "registerDate": "-"
  },
  {
    "name": "그린모터스(부천)",
    "grade": "3급",
    "priority": "",
    "HCS": "N",
    "phone": "0326820901",
    "address": "경기도 부천시 계남로 302 (중동)",
    "lat": "37.5036958",
    "lng": "126.7813669",
    "monthlyCapacity": "ㅇㅇ대",
    "currentIncoming": "ㅇㅇ대",
    "possibleIncoming": "ㅇㅇ대",
    "repairGeneral": "○",
    "repairAccident": "ⅹ",
    "pointHyundai": "-",
    "pointKia": "-",
    "notes": "-",
    "registerDate": "-"
  },
  {
    "name": "금호타이어 성남대리점(공임나라 분당서현점)",
    "grade": "3급",
    "priority": "",
    "HCS": "N",
    "phone": "0317513072",
    "address": "경기도 성남시 분당구 불정로 420 (서현동)",
    "lat": "37.3765921",
    "lng": "127.1403025",
    "monthlyCapacity": "ㅇㅇ대",
    "currentIncoming": "ㅇㅇ대",
    "possibleIncoming": "ㅇㅇ대",
    "repairGeneral": "○",
    "repairAccident": "ⅹ",
    "pointHyundai": "-",
    "pointKia": "-",
    "notes": "(예약必)",
    "registerDate": "-"
  },
  {
    "name": "기아카클리닉영동점",
    "grade": "3급",
    "priority": "",
    "HCS": "N",
    "phone": "0437441072",
    "address": "충청북도 영동군 동정로 119-1 (영동읍, 기아자동차영동지점)",
    "lat": "36.1716557",
    "lng": "127.7940846",
    "monthlyCapacity": "ㅇㅇ대",
    "currentIncoming": "ㅇㅇ대",
    "possibleIncoming": "ㅇㅇ대",
    "repairGeneral": "○",
    "repairAccident": "ⅹ",
    "pointHyundai": "○",
    "pointKia": "-",
    "notes": "-",
    "registerDate": "-"
  },
  {
    "name": "대영자동차공업사",
    "grade": "3급",
    "priority": "",
    "HCS": "N",
    "phone": "027326367",
    "address": "서울특별시 중구 청파로 457 (중림동)",
    "lat": "37.5600852",
    "lng": "126.9679184",
    "monthlyCapacity": "ㅇㅇ대",
    "currentIncoming": "ㅇㅇ대",
    "possibleIncoming": "ㅇㅇ대",
    "repairGeneral": "○",
    "repairAccident": "ⅹ",
    "pointHyundai": "-",
    "pointKia": "-",
    "notes": "(견인입고금지)",
    "registerDate": "-"
  },
  {
    "name": "대우바로정비코너삼척",
    "grade": "3급",
    "priority": "",
    "HCS": "N",
    "phone": "0335738255",
    "address": "강원도 삼척시 오십천로 101 (등봉동, 등봉주유소)",
    "lat": "37.4432132",
    "lng": "129.1318601",
    "monthlyCapacity": "ㅇㅇ대",
    "currentIncoming": "ㅇㅇ대",
    "possibleIncoming": "ㅇㅇ대",
    "repairGeneral": "○",
    "repairAccident": "ⅹ",
    "pointHyundai": "-",
    "pointKia": "-",
    "notes": "-",
    "registerDate": "-"
  },
  {
    "name": "대천카서비스",
    "grade": "3급",
    "priority": "",
    "HCS": "N",
    "phone": "0513267199",
    "address": "부산광역시 사상구 학감대로133번길 5 (학장동)",
    "lat": "35.1425901",
    "lng": "128.9875375",
    "monthlyCapacity": "ㅇㅇ대",
    "currentIncoming": "ㅇㅇ대",
    "possibleIncoming": "ㅇㅇ대",
    "repairGeneral": "○",
    "repairAccident": "ⅹ",
    "pointHyundai": "-",
    "pointKia": "-",
    "notes": "-",
    "registerDate": "-"
  },
  {
    "name": "대한자동차공업사",
    "grade": "3급",
    "priority": "",
    "HCS": "N",
    "phone": "01036045294",
    "address": "광주광역시 북구 신임로31번길 33 (신안동)",
    "lat": "35.1666826",
    "lng": "126.8966934",
    "monthlyCapacity": "ㅇㅇ대",
    "currentIncoming": "ㅇㅇ대",
    "possibleIncoming": "ㅇㅇ대",
    "repairGeneral": "○",
    "repairAccident": "ⅹ",
    "pointHyundai": "-",
    "pointKia": "-",
    "notes": "-",
    "registerDate": "-"
  },
  {
    "name": "디지털정비공업사",
    "grade": "3급",
    "priority": "",
    "HCS": "N",
    "phone": "028524679",
    "address": "서울특별시 관악구 시흥대로 532 (신림동, 유성빌딩)",
    "lat": "37.4808448",
    "lng": "126.9002530",
    "monthlyCapacity": "ㅇㅇ대",
    "currentIncoming": "ㅇㅇ대",
    "possibleIncoming": "ㅇㅇ대",
    "repairGeneral": "○",
    "repairAccident": "ⅹ",
    "pointHyundai": "-",
    "pointKia": "-",
    "notes": "-",
    "registerDate": "-"
  },
  {
    "name": "르노삼성자동차지정정비코너옥포점",
    "grade": "3급",
    "priority": "",
    "HCS": "N",
    "phone": "0556882545",
    "address": "경상남도 거제시 옥포성안로 18 (옥포동)",
    "lat": "34.8880212",
    "lng": "128.6939034",
    "monthlyCapacity": "ㅇㅇ대",
    "currentIncoming": "ㅇㅇ대",
    "possibleIncoming": "ㅇㅇ대",
    "repairGeneral": "○",
    "repairAccident": "ⅹ",
    "pointHyundai": "-",
    "pointKia": "-",
    "notes": "-",
    "registerDate": "-"
  },
  {
    "name": "르노삼성정비코너인후점",
    "grade": "3급",
    "priority": "",
    "HCS": "N",
    "phone": "0632411344",
    "address": "전라북도 전주시 덕진구 견훤로 142 (인후동1가, 르노삼성자동차)",
    "lat": "35.8248352",
    "lng": "127.1616577",
    "monthlyCapacity": "ㅇㅇ대",
    "currentIncoming": "ㅇㅇ대",
    "possibleIncoming": "ㅇㅇ대",
    "repairGeneral": "○",
    "repairAccident": "ⅹ",
    "pointHyundai": "-",
    "pointKia": "-",
    "notes": "-",
    "registerDate": "-"
  },
  {
    "name": "마스터자동차발안점",
    "grade": "3급",
    "priority": "",
    "HCS": "N",
    "phone": "01033898941",
    "address": "경기도 화성시 은행나무로 432-6 (양감면)",
    "lat": "37.0956659",
    "lng": "126.9396579",
    "monthlyCapacity": "ㅇㅇ대",
    "currentIncoming": "ㅇㅇ대",
    "possibleIncoming": "ㅇㅇ대",
    "repairGeneral": "○",
    "repairAccident": "ⅹ",
    "pointHyundai": "-",
    "pointKia": "-",
    "notes": "-",
    "registerDate": "-"
  },
  {
    "name": "박카스정비소",
    "grade": "3급",
    "priority": "",
    "HCS": "N",
    "phone": "0324391308",
    "address": "인천광역시 남동구 소래역동로 5-2 (논현동, 방옥빌딩)",
    "lat": "37.4030677",
    "lng": "126.7330162",
    "monthlyCapacity": "ㅇㅇ대",
    "currentIncoming": "ㅇㅇ대",
    "possibleIncoming": "ㅇㅇ대",
    "repairGeneral": "○",
    "repairAccident": "ⅹ",
    "pointHyundai": "-",
    "pointKia": "-",
    "notes": "(에어컨수리 입고금지)",
    "registerDate": "-"
  },
  {
    "name": "삼이자동차공업사",
    "grade": "3급",
    "priority": "",
    "HCS": "N",
    "phone": "027151414",
    "address": "서울특별시 마포구 창전로 91 (창전동)",
    "lat": "37.5506062",
    "lng": "126.9328224",
    "monthlyCapacity": "ㅇㅇ대",
    "currentIncoming": "ㅇㅇ대",
    "possibleIncoming": "ㅇㅇ대",
    "repairGeneral": "○",
    "repairAccident": "ⅹ",
    "pointHyundai": "-",
    "pointKia": "-",
    "notes": "-",
    "registerDate": "-"
  },
  {
    "name": "새서울카공업사",
    "grade": "3급",
    "priority": "",
    "HCS": "N",
    "phone": "01087542183",
    "address": "서울특별시 송파구 새말로 165 (문정동)",
    "lat": "37.4853549",
    "lng": "127.1311802",
    "monthlyCapacity": "ㅇㅇ대",
    "currentIncoming": "ㅇㅇ대",
    "possibleIncoming": "ㅇㅇ대",
    "repairGeneral": "○",
    "repairAccident": "ⅹ",
    "pointHyundai": "-",
    "pointKia": "-",
    "notes": "-",
    "registerDate": "-"
  },
  {
    "name": "스피드공업사",
    "grade": "3급",
    "priority": "",
    "HCS": "N",
    "phone": "01058731414",
    "address": "경기도 시흥시 수인로 2241-16 (조남동)",
    "lat": "37.3803020",
    "lng": "126.8685744",
    "monthlyCapacity": "ㅇㅇ대",
    "currentIncoming": "ㅇㅇ대",
    "possibleIncoming": "ㅇㅇ대",
    "repairGeneral": "○",
    "repairAccident": "ⅹ",
    "pointHyundai": "-",
    "pointKia": "-",
    "notes": "-",
    "registerDate": "-"
  },
  {
    "name": "스피드메이트진천점",
    "grade": "3급",
    "priority": "",
    "HCS": "N",
    "phone": "0435349966",
    "address": "충청북도 진천군 대촌길 33-8 (진천읍)",
    "lat": "36.8616064",
    "lng": "127.4491406",
    "monthlyCapacity": "ㅇㅇ대",
    "currentIncoming": "ㅇㅇ대",
    "possibleIncoming": "ㅇㅇ대",
    "repairGeneral": "○",
    "repairAccident": "ⅹ",
    "pointHyundai": "-",
    "pointKia": "-",
    "notes": "-",
    "registerDate": "-"
  },
  {
    "name": "승원상사",
    "grade": "3급",
    "priority": "",
    "HCS": "N",
    "phone": "027115566",
    "address": "서울특별시 마포구 만리재로 73 (신공덕동, 승원빌딩)",
    "lat": "37.5472919",
    "lng": "126.9577390",
    "monthlyCapacity": "ㅇㅇ대",
    "currentIncoming": "ㅇㅇ대",
    "possibleIncoming": "ㅇㅇ대",
    "repairGeneral": "○",
    "repairAccident": "ⅹ",
    "pointHyundai": "-",
    "pointKia": "-",
    "notes": "-",
    "registerDate": "-"
  },
  {
    "name": "신화타이어",
    "grade": "3급",
    "priority": "",
    "HCS": "N",
    "phone": "0336467277",
    "address": "강원특별자치도 강릉시 가작로 153 ",
    "lat": "37.7705514",
    "lng": "128.8925958",
    "monthlyCapacity": "ㅇㅇ대",
    "currentIncoming": "ㅇㅇ대",
    "possibleIncoming": "ㅇㅇ대",
    "repairGeneral": "○",
    "repairAccident": "ⅹ",
    "pointHyundai": "-",
    "pointKia": "-",
    "notes": "-",
    "registerDate": "-"
  },
  {
    "name": "아주자동차정비",
    "grade": "3급",
    "priority": "",
    "HCS": "N",
    "phone": "0553144177",
    "address": "경상남도 김해시 상동로 581 (상동면)",
    "lat": "35.3094307",
    "lng": "128.9325312",
    "monthlyCapacity": "ㅇㅇ대",
    "currentIncoming": "ㅇㅇ대",
    "possibleIncoming": "ㅇㅇ대",
    "repairGeneral": "○",
    "repairAccident": "ⅹ",
    "pointHyundai": "-",
    "pointKia": "-",
    "notes": "-",
    "registerDate": "-"
  },
  {
    "name": "애니카랜드 서귀포점",
    "grade": "3급",
    "priority": "",
    "HCS": "N",
    "phone": "01086609686",
    "address": "제주특별자치도 서귀포시 동홍로 145 (동홍동)",
    "lat": "33.2614901",
    "lng": "126.5669676",
    "monthlyCapacity": "ㅇㅇ대",
    "currentIncoming": "ㅇㅇ대",
    "possibleIncoming": "ㅇㅇ대",
    "repairGeneral": "○",
    "repairAccident": "ⅹ",
    "pointHyundai": "-",
    "pointKia": "-",
    "notes": "-",
    "registerDate": "-"
  },
  {
    "name": "애니카랜드논산점",
    "grade": "3급",
    "priority": "",
    "HCS": "N",
    "phone": "0417335109",
    "address": "충청남도 논산시 중앙로384번길 31-4 (취암동)",
    "lat": "36.2007116",
    "lng": "127.0925142",
    "monthlyCapacity": "ㅇㅇ대",
    "currentIncoming": "ㅇㅇ대",
    "possibleIncoming": "ㅇㅇ대",
    "repairGeneral": "○",
    "repairAccident": "ⅹ",
    "pointHyundai": "-",
    "pointKia": "-",
    "notes": "-",
    "registerDate": "-"
  },
  {
    "name": "애니카랜드상계점",
    "grade": "3급",
    "priority": "",
    "HCS": "N",
    "phone": "0233911001",
    "address": "서울특별시 노원구 동일로242가길 44 (상계동)",
    "lat": "37.6778122",
    "lng": "127.0560512",
    "monthlyCapacity": "ㅇㅇ대",
    "currentIncoming": "ㅇㅇ대",
    "possibleIncoming": "ㅇㅇ대",
    "repairGeneral": "○",
    "repairAccident": "ⅹ",
    "pointHyundai": "-",
    "pointKia": "-",
    "notes": "-",
    "registerDate": "-"
  },
  {
    "name": "애니카랜드신목동점",
    "grade": "3급",
    "priority": "",
    "HCS": "N",
    "phone": "0226533439",
    "address": "서울특별시 양천구 목동중앙로 131 (목동)",
    "lat": "37.5400425",
    "lng": "126.8748496",
    "monthlyCapacity": "ㅇㅇ대",
    "currentIncoming": "ㅇㅇ대",
    "possibleIncoming": "ㅇㅇ대",
    "repairGeneral": "○",
    "repairAccident": "ⅹ",
    "pointHyundai": "-",
    "pointKia": "-",
    "notes": "-",
    "registerDate": "-"
  },
  {
    "name": "애니카랜드자양점",
    "grade": "3급",
    "priority": "",
    "HCS": "N",
    "phone": "024655202",
    "address": "서울특별시 광진구 자양번영로 69 (자양동, 우성빌딩)",
    "lat": "37.5357485",
    "lng": "127.0762408",
    "monthlyCapacity": "ㅇㅇ대",
    "currentIncoming": "ㅇㅇ대",
    "possibleIncoming": "ㅇㅇ대",
    "repairGeneral": "○",
    "repairAccident": "ⅹ",
    "pointHyundai": "-",
    "pointKia": "-",
    "notes": "-",
    "registerDate": "-"
  },
  {
    "name": "애니카랜드천곡점",
    "grade": "3급",
    "priority": "",
    "HCS": "N",
    "phone": "0335352955",
    "address": "강원도 동해시 한섬로 123 (천곡동, 이레컴퓨터, 애니카센타)",
    "lat": "37.5220431",
    "lng": "129.1172392",
    "monthlyCapacity": "ㅇㅇ대",
    "currentIncoming": "ㅇㅇ대",
    "possibleIncoming": "ㅇㅇ대",
    "repairGeneral": "○",
    "repairAccident": "ⅹ",
    "pointHyundai": "-",
    "pointKia": "-",
    "notes": "-",
    "registerDate": "-"
  },
  {
    "name": "에이스카모터스",
    "grade": "3급",
    "priority": "",
    "HCS": "N",
    "phone": "0538540177",
    "address": "경상북도 경산시 공단2로9길 6 (진량읍)",
    "lat": "35.8720995",
    "lng": "128.8236528",
    "monthlyCapacity": "ㅇㅇ대",
    "currentIncoming": "ㅇㅇ대",
    "possibleIncoming": "ㅇㅇ대",
    "repairGeneral": "○",
    "repairAccident": "ⅹ",
    "pointHyundai": "-",
    "pointKia": "-",
    "notes": "(상용겸용)",
    "registerDate": "-"
  },
  {
    "name": "여의도자동차공업사",
    "grade": "3급",
    "priority": "",
    "HCS": "N",
    "phone": "028138118",
    "address": "서울특별시 동작구 여의대방로62길 20 (대방동)",
    "lat": "37.5139451",
    "lng": "126.9287426",
    "monthlyCapacity": "ㅇㅇ대",
    "currentIncoming": "ㅇㅇ대",
    "possibleIncoming": "ㅇㅇ대",
    "repairGeneral": "○",
    "repairAccident": "ⅹ",
    "pointHyundai": "-",
    "pointKia": "-",
    "notes": "-",
    "registerDate": "-"
  },
  {
    "name": "오로카서비스.연동렉카",
    "grade": "3급",
    "priority": "",
    "HCS": "N",
    "phone": "06474897489",
    "address": "제주특별자치도 제주시 연오로 47 (오라삼동)",
    "lat": "33.4891169",
    "lng": "126.5019469",
    "monthlyCapacity": "ㅇㅇ대",
    "currentIncoming": "ㅇㅇ대",
    "possibleIncoming": "ㅇㅇ대",
    "repairGeneral": "○",
    "repairAccident": "ⅹ",
    "pointHyundai": "-",
    "pointKia": "-",
    "notes": "-",
    "registerDate": "-"
  },
  {
    "name": "오륜상사",
    "grade": "3급",
    "priority": "",
    "HCS": "N",
    "phone": "0315710884",
    "address": "경기도 남양주시 금강로 1181 (진접읍)",
    "lat": "37.7043998",
    "lng": "127.1672983",
    "monthlyCapacity": "ㅇㅇ대",
    "currentIncoming": "ㅇㅇ대",
    "possibleIncoming": "ㅇㅇ대",
    "repairGeneral": "○",
    "repairAccident": "ⅹ",
    "pointHyundai": "-",
    "pointKia": "-",
    "notes": "-",
    "registerDate": "-"
  },
  {
    "name": "오토서비스",
    "grade": "3급",
    "priority": "",
    "HCS": "N",
    "phone": "0517277223",
    "address": "부산광역시 기장군 장안산단7로 30 (장안읍)",
    "lat": "35.3342494",
    "lng": "129.2638284",
    "monthlyCapacity": "ㅇㅇ대",
    "currentIncoming": "ㅇㅇ대",
    "possibleIncoming": "ㅇㅇ대",
    "repairGeneral": "○",
    "repairAccident": "ⅹ",
    "pointHyundai": "-",
    "pointKia": "-",
    "notes": "-",
    "registerDate": "-"
  },
  {
    "name": "오토엠에스(거제)",
    "grade": "3급",
    "priority": "",
    "HCS": "N",
    "phone": "0556362097",
    "address": "경상남도 거제시 송정5길 112-9 (연초면)",
    "lat": "34.9064908",
    "lng": "128.6797156",
    "monthlyCapacity": "ㅇㅇ대",
    "currentIncoming": "ㅇㅇ대",
    "possibleIncoming": "ㅇㅇ대",
    "repairGeneral": "○",
    "repairAccident": "ⅹ",
    "pointHyundai": "-",
    "pointKia": "-",
    "notes": "-",
    "registerDate": "-"
  },
  {
    "name": "오토오아시스구리인창점",
    "grade": "3급",
    "priority": "",
    "HCS": "N",
    "phone": "0315557787",
    "address": "경기도 구리시 응달말로 35-1 (인창동)",
    "lat": "37.6036071",
    "lng": "127.1345811",
    "monthlyCapacity": "ㅇㅇ대",
    "currentIncoming": "ㅇㅇ대",
    "possibleIncoming": "ㅇㅇ대",
    "repairGeneral": "○",
    "repairAccident": "ⅹ",
    "pointHyundai": "-",
    "pointKia": "-",
    "notes": "-",
    "registerDate": "-"
  },
  {
    "name": "오토오아시스구운점",
    "grade": "3급",
    "priority": "",
    "HCS": "N",
    "phone": "0312953944",
    "address": "경기도 수원시 권선구 금호로 265 (구운동)",
    "lat": "37.2762958",
    "lng": "126.9789823",
    "monthlyCapacity": "ㅇㅇ대",
    "currentIncoming": "ㅇㅇ대",
    "possibleIncoming": "ㅇㅇ대",
    "repairGeneral": "○",
    "repairAccident": "ⅹ",
    "pointHyundai": "-",
    "pointKia": "-",
    "notes": "-",
    "registerDate": "-"
  },
  {
    "name": "용흥오토서비스",
    "grade": "3급",
    "priority": "",
    "HCS": "N",
    "phone": "0542470909",
    "address": "경상북도 포항시 북구 대안길 3 (용흥동)",
    "lat": "36.0389950",
    "lng": "129.3560651",
    "monthlyCapacity": "ㅇㅇ대",
    "currentIncoming": "ㅇㅇ대",
    "possibleIncoming": "ㅇㅇ대",
    "repairGeneral": "○",
    "repairAccident": "ⅹ",
    "pointHyundai": "-",
    "pointKia": "-",
    "notes": "-",
    "registerDate": "-"
  },
  {
    "name": "우리동네카센터",
    "grade": "3급",
    "priority": "",
    "HCS": "N",
    "phone": "0319884089",
    "address": "경기도 김포시 걸포로 146 (걸포동)",
    "lat": "37.6437994",
    "lng": "126.7019811",
    "monthlyCapacity": "ㅇㅇ대",
    "currentIncoming": "ㅇㅇ대",
    "possibleIncoming": "ㅇㅇ대",
    "repairGeneral": "○",
    "repairAccident": "ⅹ",
    "pointHyundai": "-",
    "pointKia": "-",
    "notes": "-",
    "registerDate": "-"
  },
  {
    "name": "운양동카센터",
    "grade": "3급",
    "priority": "",
    "HCS": "N",
    "phone": "0319872563",
    "address": "경기도 김포시 김포한강11로331번길 137 (운양동)",
    "lat": "37.6606429",
    "lng": "126.6811840",
    "monthlyCapacity": "ㅇㅇ대",
    "currentIncoming": "ㅇㅇ대",
    "possibleIncoming": "ㅇㅇ대",
    "repairGeneral": "○",
    "repairAccident": "ⅹ",
    "pointHyundai": "-",
    "pointKia": "-",
    "notes": "(입고 전 예약 必)",
    "registerDate": "-"
  },
  {
    "name": "자동차1번지",
    "grade": "3급",
    "priority": "",
    "HCS": "N",
    "phone": "0535636933",
    "address": "대구광역시 서구 국채보상로 196-1 (평리동)",
    "lat": "35.8696502",
    "lng": "128.5526203",
    "monthlyCapacity": "ㅇㅇ대",
    "currentIncoming": "ㅇㅇ대",
    "possibleIncoming": "ㅇㅇ대",
    "repairGeneral": "○",
    "repairAccident": "ⅹ",
    "pointHyundai": "-",
    "pointKia": "-",
    "notes": "-",
    "registerDate": "-"
  },
  {
    "name": "전곡점기아오토큐(기아)",
    "grade": "3급",
    "priority": "",
    "HCS": "N",
    "phone": "0318328500",
    "address": "경기도 연천군 평화로698번길 92 (전곡읍)",
    "lat": "38.0341831",
    "lng": "127.0644375",
    "monthlyCapacity": "ㅇㅇ대",
    "currentIncoming": "ㅇㅇ대",
    "possibleIncoming": "ㅇㅇ대",
    "repairGeneral": "○",
    "repairAccident": "ⅹ",
    "pointHyundai": "-",
    "pointKia": "○",
    "notes": "-",
    "registerDate": "-"
  },
  {
    "name": "제이모터스",
    "grade": "3급",
    "priority": "",
    "HCS": "N",
    "phone": "0314541011",
    "address": "경기도 의왕시 오전공업길 6 (오전동)",
    "lat": "37.3563252",
    "lng": "126.9670847",
    "monthlyCapacity": "ㅇㅇ대",
    "currentIncoming": "ㅇㅇ대",
    "possibleIncoming": "ㅇㅇ대",
    "repairGeneral": "○",
    "repairAccident": "ⅹ",
    "pointHyundai": "-",
    "pointKia": "-",
    "notes": "(소모품 교체 불가)",
    "registerDate": "-"
  },
  {
    "name": "제이케이모터스",
    "grade": "3급",
    "priority": "",
    "HCS": "N",
    "phone": "01092633247",
    "address": "경기도 평택시 서탄2로 146 (서탄면)",
    "lat": "37.1153083",
    "lng": "127.0354227",
    "monthlyCapacity": "ㅇㅇ대",
    "currentIncoming": "ㅇㅇ대",
    "possibleIncoming": "ㅇㅇ대",
    "repairGeneral": "○",
    "repairAccident": "ⅹ",
    "pointHyundai": "-",
    "pointKia": "-",
    "notes": "-",
    "registerDate": "-"
  },
  {
    "name": "좋은차만들기",
    "grade": "3급",
    "priority": "",
    "HCS": "N",
    "phone": "0226826907",
    "address": "경기도 광명시 시청로 63 (철산동)",
    "lat": "37.4823176",
    "lng": "126.8653514",
    "monthlyCapacity": "ㅇㅇ대",
    "currentIncoming": "ㅇㅇ대",
    "possibleIncoming": "ㅇㅇ대",
    "repairGeneral": "○",
    "repairAccident": "ⅹ",
    "pointHyundai": "-",
    "pointKia": "-",
    "notes": "(예약必)(타이어교환X)",
    "registerDate": "-"
  },
  {
    "name": "주식회사 싸이오토모티브",
    "grade": "3급",
    "priority": "",
    "HCS": "N",
    "phone": "01072356177",
    "address": "강원특별자치도 속초시 번영로 145-10 ",
    "lat": "38.2118678",
    "lng": "128.5882961",
    "monthlyCapacity": "ㅇㅇ대",
    "currentIncoming": "ㅇㅇ대",
    "possibleIncoming": "ㅇㅇ대",
    "repairGeneral": "○",
    "repairAccident": "ⅹ",
    "pointHyundai": "-",
    "pointKia": "-",
    "notes": "-",
    "registerDate": "-"
  },
  {
    "name": "청구모터스",
    "grade": "3급",
    "priority": "",
    "HCS": "N",
    "phone": "0534274552",
    "address": "대구광역시 동구 국채보상로163길 5 (신천동)",
    "lat": "35.8682977",
    "lng": "128.6170016",
    "monthlyCapacity": "ㅇㅇ대",
    "currentIncoming": "ㅇㅇ대",
    "possibleIncoming": "ㅇㅇ대",
    "repairGeneral": "○",
    "repairAccident": "ⅹ",
    "pointHyundai": "-",
    "pointKia": "-",
    "notes": "-",
    "registerDate": "-"
  },
  {
    "name": "청주열린타이어",
    "grade": "3급",
    "priority": "",
    "HCS": "N",
    "phone": "0432621238",
    "address": "충청북도 청주시 흥덕구 직지대로 596 (봉명동)",
    "lat": "36.6429236",
    "lng": "127.4589482",
    "monthlyCapacity": "ㅇㅇ대",
    "currentIncoming": "ㅇㅇ대",
    "possibleIncoming": "ㅇㅇ대",
    "repairGeneral": "○",
    "repairAccident": "ⅹ",
    "pointHyundai": "-",
    "pointKia": "-",
    "notes": "(타이어전용)(입고금지)",
    "registerDate": "-"
  },
  {
    "name": "친구중고타이어",
    "grade": "3급",
    "priority": "",
    "HCS": "N",
    "phone": "0337347911",
    "address": "강원특별자치도 원주시 북원로 2817 ",
    "lat": "37.3945192",
    "lng": "127.9506501",
    "monthlyCapacity": "ㅇㅇ대",
    "currentIncoming": "ㅇㅇ대",
    "possibleIncoming": "ㅇㅇ대",
    "repairGeneral": "ⅹ",
    "repairAccident": "ⅹ",
    "pointHyundai": "-",
    "pointKia": "-",
    "notes": "(타이어만 가능, 얼라이먼트X)",
    "registerDate": "-"
  },
  {
    "name": "카맨샵죽전점",
    "grade": "3급",
    "priority": "",
    "HCS": "N",
    "phone": "0535666839",
    "address": "대구광역시 달서구 와룡로41길 35-6 (죽전동)",
    "lat": "35.8510862",
    "lng": "128.5348957",
    "monthlyCapacity": "ㅇㅇ대",
    "currentIncoming": "ㅇㅇ대",
    "possibleIncoming": "ㅇㅇ대",
    "repairGeneral": "○",
    "repairAccident": "ⅹ",
    "pointHyundai": "-",
    "pointKia": "-",
    "notes": "-",
    "registerDate": "-"
  },
  {
    "name": "카플러스",
    "grade": "3급",
    "priority": "",
    "HCS": "N",
    "phone": "0517515847",
    "address": "부산광역시 연제구 과정로 210-1 (연산동)",
    "lat": "35.1880264",
    "lng": "129.1041957",
    "monthlyCapacity": "ㅇㅇ대",
    "currentIncoming": "ㅇㅇ대",
    "possibleIncoming": "ㅇㅇ대",
    "repairGeneral": "○",
    "repairAccident": "ⅹ",
    "pointHyundai": "-",
    "pointKia": "-",
    "notes": "-",
    "registerDate": "-"
  },
  {
    "name": "코리아카종합센타",
    "grade": "3급",
    "priority": "",
    "HCS": "N",
    "phone": "0432688868",
    "address": "충청북도 청주시 흥덕구 봉명로 222 (봉명동)",
    "lat": "36.6396496",
    "lng": "127.4662486",
    "monthlyCapacity": "ㅇㅇ대",
    "currentIncoming": "ㅇㅇ대",
    "possibleIncoming": "ㅇㅇ대",
    "repairGeneral": "○",
    "repairAccident": "ⅹ",
    "pointHyundai": "-",
    "pointKia": "-",
    "notes": "타이어교환X (20인치이상 )",
    "registerDate": "-"
  },
  {
    "name": "타이어클럽",
    "grade": "3급",
    "priority": "",
    "HCS": "N",
    "phone": "0632760772",
    "address": "전라북도 전주시 덕진구 권삼득로 120 (진북동)",
    "lat": "35.8311450",
    "lng": "127.1425091",
    "monthlyCapacity": "ㅇㅇ대",
    "currentIncoming": "ㅇㅇ대",
    "possibleIncoming": "ㅇㅇ대",
    "repairGeneral": "○",
    "repairAccident": "ⅹ",
    "pointHyundai": "-",
    "pointKia": "-",
    "notes": "-",
    "registerDate": "-"
  },
  {
    "name": "타이어타운서울카",
    "grade": "3급",
    "priority": "",
    "HCS": "N",
    "phone": "0638541723",
    "address": "전라북도 익산시 인북로64길 1 (신동, 타이어타운)",
    "lat": "35.9598906",
    "lng": "126.9620007",
    "monthlyCapacity": "ㅇㅇ대",
    "currentIncoming": "ㅇㅇ대",
    "possibleIncoming": "ㅇㅇ대",
    "repairGeneral": "○",
    "repairAccident": "ⅹ",
    "pointHyundai": "-",
    "pointKia": "-",
    "notes": "-",
    "registerDate": "-"
  },
  {
    "name": "타이어프로 포승점",
    "grade": "3급",
    "priority": "",
    "HCS": "N",
    "phone": "0316818505",
    "address": "경기 평택시 포승읍 서동대로 1180",
    "lat": "36.9841350",
    "lng": "126.8846714",
    "monthlyCapacity": "ㅇㅇ대",
    "currentIncoming": "ㅇㅇ대",
    "possibleIncoming": "ㅇㅇ대",
    "repairGeneral": "○",
    "repairAccident": "ⅹ",
    "pointHyundai": "-",
    "pointKia": "-",
    "notes": "-",
    "registerDate": "-"
  },
  {
    "name": "타이어프로부평남부점",
    "grade": "3급",
    "priority": "",
    "HCS": "N",
    "phone": "0323611155",
    "address": "인천광역시 부평구 장제로 93 (부평동)",
    "lat": "37.4938894",
    "lng": "126.7296354",
    "monthlyCapacity": "ㅇㅇ대",
    "currentIncoming": "ㅇㅇ대",
    "possibleIncoming": "ㅇㅇ대",
    "repairGeneral": "ⅹ",
    "repairAccident": "ⅹ",
    "pointHyundai": "-",
    "pointKia": "-",
    "notes": "(엔진오일만 가능)",
    "registerDate": "-"
  },
  {
    "name": "타이어프로중산점",
    "grade": "3급",
    "priority": "",
    "HCS": "N",
    "phone": "0319750052",
    "address": "경기도 고양시 일산동구 중산로157번길 3 (중산동)",
    "lat": "37.6858135",
    "lng": "126.7807634",
    "monthlyCapacity": "ㅇㅇ대",
    "currentIncoming": "ㅇㅇ대",
    "possibleIncoming": "ㅇㅇ대",
    "repairGeneral": "○",
    "repairAccident": "ⅹ",
    "pointHyundai": "-",
    "pointKia": "-",
    "notes": "-",
    "registerDate": "-"
  },
  {
    "name": "투모터스",
    "grade": "3급",
    "priority": "",
    "HCS": "N",
    "phone": "0539650555",
    "address": "대구광역시 동구 안심로 225 (서호동)",
    "lat": "35.8662194",
    "lng": "128.7091931",
    "monthlyCapacity": "ㅇㅇ대",
    "currentIncoming": "ㅇㅇ대",
    "possibleIncoming": "ㅇㅇ대",
    "repairGeneral": "○",
    "repairAccident": "ⅹ",
    "pointHyundai": "-",
    "pointKia": "-",
    "notes": "-",
    "registerDate": "-"
  },
  {
    "name": "티스테이션 울산서동점",
    "grade": "3급",
    "priority": "",
    "HCS": "N",
    "phone": "0522921919",
    "address": "울산광역시 중구 북부순환도로 830 (서동)",
    "lat": "35.5784705",
    "lng": "129.3423832",
    "monthlyCapacity": "ㅇㅇ대",
    "currentIncoming": "ㅇㅇ대",
    "possibleIncoming": "ㅇㅇ대",
    "repairGeneral": "○",
    "repairAccident": "ⅹ",
    "pointHyundai": "-",
    "pointKia": "-",
    "notes": "-",
    "registerDate": "-"
  },
  {
    "name": "패덕자동차공업사",
    "grade": "3급",
    "priority": "",
    "HCS": "N",
    "phone": "025810442",
    "address": "서울특별시 서초구 강남대로 221 (양재동, 양재역환승주차장)",
    "lat": "37.4836886",
    "lng": "127.0341274",
    "monthlyCapacity": "ㅇㅇ대",
    "currentIncoming": "ㅇㅇ대",
    "possibleIncoming": "ㅇㅇ대",
    "repairGeneral": "○",
    "repairAccident": "ⅹ",
    "pointHyundai": "-",
    "pointKia": "-",
    "notes": "-",
    "registerDate": "-"
  },
  {
    "name": "하이카서비스광산점",
    "grade": "3급",
    "priority": "",
    "HCS": "N",
    "phone": "0629530485",
    "address": "광주광역시 광산구 임방울대로 136 (운남동)",
    "lat": "35.1732613",
    "lng": "126.8178295",
    "monthlyCapacity": "ㅇㅇ대",
    "currentIncoming": "ㅇㅇ대",
    "possibleIncoming": "ㅇㅇ대",
    "repairGeneral": "○",
    "repairAccident": "ⅹ",
    "pointHyundai": "-",
    "pointKia": "-",
    "notes": "-",
    "registerDate": "-"
  },
  {
    "name": "한강자동차공업사",
    "grade": "3급",
    "priority": "",
    "HCS": "N",
    "phone": "024738278",
    "address": "서울특별시 강동구 성안로 77-1 (성내동)",
    "lat": "37.5306017",
    "lng": "127.1318757",
    "monthlyCapacity": "ㅇㅇ대",
    "currentIncoming": "ㅇㅇ대",
    "possibleIncoming": "ㅇㅇ대",
    "repairGeneral": "○",
    "repairAccident": "ⅹ",
    "pointHyundai": "-",
    "pointKia": "-",
    "notes": "-",
    "registerDate": "-"
  },
  {
    "name": "한국타이어영판",
    "grade": "3급",
    "priority": "",
    "HCS": "N",
    "phone": "028373325",
    "address": "서울특별시 구로구 가마산로 264 (구로동)",
    "lat": "37.4954374",
    "lng": "126.8900634",
    "monthlyCapacity": "ㅇㅇ대",
    "currentIncoming": "ㅇㅇ대",
    "possibleIncoming": "ㅇㅇ대",
    "repairGeneral": "○",
    "repairAccident": "ⅹ",
    "pointHyundai": "-",
    "pointKia": "-",
    "notes": "(타이어만 가능)",
    "registerDate": "-"
  },
  {
    "name": "한밭카서비스",
    "grade": "3급",
    "priority": "",
    "HCS": "N",
    "phone": "0426245918",
    "address": "대전광역시 대덕구 중리로 5 (중리동)",
    "lat": "36.3596248",
    "lng": "127.4251495",
    "monthlyCapacity": "ㅇㅇ대",
    "currentIncoming": "ㅇㅇ대",
    "possibleIncoming": "ㅇㅇ대",
    "repairGeneral": "○",
    "repairAccident": "ⅹ",
    "pointHyundai": "-",
    "pointKia": "-",
    "notes": "-",
    "registerDate": "-"
  },
  {
    "name": "행복타이어(타이어케이)",
    "grade": "3급",
    "priority": "",
    "HCS": "N",
    "phone": "0632712513",
    "address": "전북특별자치도 전주시 덕진구 동부대로 1246 ",
    "lat": "35.8702296",
    "lng": "127.1106071",
    "monthlyCapacity": "ㅇㅇ대",
    "currentIncoming": "ㅇㅇ대",
    "possibleIncoming": "ㅇㅇ대",
    "repairGeneral": "○",
    "repairAccident": "ⅹ",
    "pointHyundai": "-",
    "pointKia": "-",
    "notes": "-",
    "registerDate": "-"
  },
  {
    "name": "현대공업사",
    "grade": "3급",
    "priority": "",
    "HCS": "N",
    "phone": "025974066",
    "address": "서울특별시 서초구 명달로 98 (서초동)",
    "lat": "37.4859773",
    "lng": "127.0042814",
    "monthlyCapacity": "ㅇㅇ대",
    "currentIncoming": "ㅇㅇ대",
    "possibleIncoming": "ㅇㅇ대",
    "repairGeneral": "○",
    "repairAccident": "ⅹ",
    "pointHyundai": "-",
    "pointKia": "-",
    "notes": "-",
    "registerDate": "-"
  },
  {
    "name": "현대서비스",
    "grade": "3급",
    "priority": "",
    "HCS": "N",
    "phone": "0517538294",
    "address": "부산광역시 수영구 광안해변로 427-1 (민락동)",
    "lat": "35.1595864",
    "lng": "129.1294512",
    "monthlyCapacity": "ㅇㅇ대",
    "currentIncoming": "ㅇㅇ대",
    "possibleIncoming": "ㅇㅇ대",
    "repairGeneral": "○",
    "repairAccident": "ⅹ",
    "pointHyundai": "-",
    "pointKia": "-",
    "notes": "-",
    "registerDate": "-"
  },
  {
    "name": "현대자동차광적점",
    "grade": "3급",
    "priority": "",
    "HCS": "N",
    "phone": "0318368804",
    "address": "경기도 양주시 부흥로 947 (광적면)",
    "lat": "37.8097040",
    "lng": "126.9945196",
    "monthlyCapacity": "ㅇㅇ대",
    "currentIncoming": "ㅇㅇ대",
    "possibleIncoming": "ㅇㅇ대",
    "repairGeneral": "○",
    "repairAccident": "ⅹ",
    "pointHyundai": "-",
    "pointKia": "-",
    "notes": "-",
    "registerDate": "-"
  },
  {
    "name": "현대카금호타이어",
    "grade": "3급",
    "priority": "",
    "HCS": "N",
    "phone": "0334615238",
    "address": "강원도 인제군 기린로 66 (기린면, 현대카금호타이어)",
    "lat": "37.9578734",
    "lng": "128.3185443",
    "monthlyCapacity": "ㅇㅇ대",
    "currentIncoming": "ㅇㅇ대",
    "possibleIncoming": "ㅇㅇ대",
    "repairGeneral": "○",
    "repairAccident": "ⅹ",
    "pointHyundai": "-",
    "pointKia": "-",
    "notes": "-",
    "registerDate": "-"
  },
  {
    "name": "현대카서비스(광진)",
    "grade": "3급",
    "priority": "",
    "HCS": "N",
    "phone": "0234377909",
    "address": "서울특별시 광진구 자양로 189 (구의동)",
    "lat": "37.5445422",
    "lng": "127.0848009",
    "monthlyCapacity": "ㅇㅇ대",
    "currentIncoming": "ㅇㅇ대",
    "possibleIncoming": "ㅇㅇ대",
    "repairGeneral": "○",
    "repairAccident": "ⅹ",
    "pointHyundai": "-",
    "pointKia": "-",
    "notes": "-",
    "registerDate": "-"
  },
  {
    "name": "현대카서비스(수원)",
    "grade": "3급",
    "priority": "",
    "HCS": "N",
    "phone": "0312278005",
    "address": "경기도 수원시 권선구 호매실로 21-17 (고색동)",
    "lat": "37.2550255",
    "lng": "126.9718320",
    "monthlyCapacity": "ㅇㅇ대",
    "currentIncoming": "ㅇㅇ대",
    "possibleIncoming": "ㅇㅇ대",
    "repairGeneral": "○",
    "repairAccident": "ⅹ",
    "pointHyundai": "-",
    "pointKia": "-",
    "notes": "(예약必)(타이어불가)",
    "registerDate": "-"
  },
  {
    "name": "1급제일자동차공업사",
    "grade": "1급",
    "priority": "",
    "HCS": "Y",
    "phone": "010-4658-5993 (이홍성)",
    "address": "전라북도 군산시 십자다리길 65",
    "lat": 35.9704743,
    "lng": 126.660488,
    "monthlyCapacity": "ㅇㅇ대",
    "currentIncoming": "ㅇㅇ대",
    "possibleIncoming": "ㅇㅇ대",
    "repairGeneral": "ⅹ",
    "repairAccident": "○",
    "pointHyundai": "-",
    "pointKia": "-",
    "notes": "-",
    "registerDate": 20250701
  },
  {
    "name": "성은자동차공업사",
    "grade": "1급",
    "priority": "",
    "HCS": "Y",
    "phone": "010-3350-5896 (류성문)",
    "address": "강원도 속초시 싸리재길 247-26",
    "lat": 38.1835353,
    "lng": 128.558823,
    "monthlyCapacity": "ㅇㅇ대",
    "currentIncoming": "ㅇㅇ대",
    "possibleIncoming": "ㅇㅇ대",
    "repairGeneral": "ⅹ",
    "repairAccident": "○",
    "pointHyundai": "-",
    "pointKia": "-",
    "notes": "(상용겸용)",
    "registerDate": 20250701
  }
]
